Time,x,y,z,vx,vy,vz,ax,ay,az,roll,pitch,yaw,vroll,vpitch,vyaw,ar,ap,ay,qw,qx,qy,qz
2.000000,0.000000,-0.000000,0.500000,0.000000,-0.000000,-0.000000,-0.000000,0.000000,0.000000,-0.000000,0.000000,0.000000,-0.000000,-0.000000,0.000000,0.000013,0.000017,0.000000,1.000000,-0.000000,-0.000000,0.000000
2.005000,0.000000,-0.000000,0.500000,0.000000,-0.000000,-0.000000,0.000000,-0.000000,-0.000000,0.000000,0.000000,0.000000,0.000000,0.000000,0.000000,0.000026,0.000034,0.000000,1.000000,0.000000,0.000000,0.000000
2.010000,0.000000,-0.000000,0.500000,0.000000,-0.000000,-0.000000,0.000000,-0.000000,-0.000000,0.000000,0.000000,0.000000,0.000000,0.000000,0.000000,0.000051,0.000067,0.000000,1.000000,0.000000,0.000000,0.000000
2.015000,0.000000,-0.000000,0.500000,0.000000,-0.000000,-0.000000,0.000000,-0.000000,-0.000000,0.000000,0.000000,0.000000,0.000001,0.000001,0.000000,0.000075,0.000099,0.000000,1.000000,0.000000,0.000000,0.000000
2.020000,0.000000,-0.000000,0.500000,0.000000,-0.000000,-0.000000,0.000000,-0.000000,-0.000000,0.000000,0.000000,0.000000,0.000001,0.000001,0.000000,0.000099,0.000130,0.000000,1.000000,0.000000,0.000000,0.000000
2.025000,0.000000,-0.000000,0.500000,0.000000,-0.000000,-0.000000,0.000000,-0.000000,-0.000000,0.000000,0.000000,0.000000,0.000002,0.000002,0.000000,0.000123,0.000160,0.000000,1.000000,0.000000,0.000000,0.000000
2.030000,0.000000,-0.000000,0.500000,0.000000,-0.000000,-0.000000,0.000000,-0.000000,-0.000001,0.000000,0.000000,0.000000,0.000002,0.000003,0.000000,0.000145,0.000190,0.000000,1.000000,0.000000,0.000000,0.000000
2.035000,0.000000,-0.000000,0.500000,0.000000,-0.000000,-0.000000,0.000000,-0.000000,-0.000001,0.000000,0.000000,0.000000,0.000003,0.000004,0.000000,0.000167,0.000219,0.000000,1.000000,0.000000,0.000000,0.000000
2.040000,0.000000,-0.000000,0.500000,0.000000,-0.000000,-0.000000,0.000001,-0.000001,-0.000002,0.000000,0.000000,0.000000,0.000004,0.000005,0.000000,0.000189,0.000247,0.000000,1.000000,0.000000,0.000000,0.000000
2.045000,0.000000,-0.000000,0.500000,0.000000,-0.000000,-0.000000,0.000001,-0.000001,-0.000003,0.000000,0.000000,0.000000,0.000005,0.000006,0.000000,0.000210,0.000274,0.000000,1.000000,0.000000,0.000000,0.000000
2.050000,0.000000,-0.000000,0.500000,0.000000,-0.000000,-0.000000,0.000001,-0.000001,-0.000003,0.000000,0.000000,0.000000,0.000006,0.000008,0.000000,0.000230,0.000301,0.000000,1.000000,0.000000,0.000000,0.000000
2.055000,0.000000,-0.000000,0.500000,0.000000,-0.000000,-0.000000,0.000002,-0.000001,-0.000005,0.000000,0.000000,0.000000,0.000007,0.000009,0.000000,0.000250,0.000326,0.000000,1.000000,0.000000,0.000000,0.000000
2.060000,0.000000,-0.000000,0.500000,0.000000,-0.000000,-0.000000,0.000002,-0.000002,-0.000006,0.000000,0.000000,0.000000,0.000009,0.000011,0.000000,0.000269,0.000351,0.000000,1.000000,0.000000,0.000000,0.000000
2.065000,0.000000,-0.000000,0.500000,0.000000,-0.000000,-0.000000,0.000003,-0.000002,-0.000007,0.000000,0.000000,0.000000,0.000010,0.000013,0.000000,0.000287,0.000376,0.000000,1.000000,0.000000,0.000000,0.000000
2.070000,0.000000,-0.000000,0.500000,0.000000,-0.000000,-0.000000,0.000004,-0.000003,-0.000009,0.000000,0.000000,0.000000,0.000011,0.000015,0.000000,0.000305,0.000399,0.000000,1.000000,0.000000,0.000000,0.000000
2.075000,0.000000,-0.000000,0.500000,0.000000,-0.000000,-0.000000,0.000004,-0.000003,-0.000011,0.000000,0.000000,0.000000,0.000013,0.000017,0.000000,0.000323,0.000422,0.000000,1.000000,0.000000,0.000000,0.000000
2.080000,0.000000,-0.000000,0.500000,0.000000,-0.000000,-0.000000,0.000005,-0.000004,-0.000014,0.000000,0.000001,0.000000,0.000015,0.000019,0.000000,0.000340,0.000444,0.000000,1.000000,0.000000,0.000000,0.000000
2.085000,0.000000,-0.000000,0.500000,0.000000,-0.000000,-0.000000,0.000006,-0.000005,-0.000016,0.000000,0.000001,0.000000,0.000016,0.000021,0.000000,0.000356,0.000465,0.000000,1.000000,0.000000,0.000000,0.000000
2.090000,0.000000,-0.000000,0.500000,0.000000,-0.000000,-0.000000,0.000007,-0.000006,-0.000019,0.000001,0.000001,0.000000,0.000018,0.000024,0.000000,0.000372,0.000486,0.000000,1.000000,0.000000,0.000000,0.000000
2.095000,0.000000,-0.000000,0.500000,0.000000,-0.000000,-0.000001,0.000008,-0.000006,-0.000022,0.000001,0.000001,0.000000,0.000020,0.000026,0.000000,0.000387,0.000506,0.000000,1.000000,0.000000,0.000000,0.000000
2.100000,0.000000,-0.000000,0.500000,0.000000,-0.000000,-0.000001,0.000010,-0.000008,-0.000026,0.000001,0.000001,0.000000,0.000022,0.000029,0.000000,0.000402,0.000525,0.000000,1.000000,0.000000,0.000001,0.000000
2.105000,0.000000,-0.000000,0.500000,0.000000,-0.000000,-0.000001,0.000011,-0.000009,-0.000030,0.000001,0.000001,0.000000,0.000024,0.000031,0.000000,0.000416,0.000544,0.000000,1.000000,0.000000,0.000001,0.000000
2.110000,0.000000,-0.000000,0.500000,0.000000,-0.000000,-0.000001,0.000013,-0.000010,-0.000034,0.000001,0.000001,0.000000,0.000026,0.000034,0.000000,0.000430,0.000562,0.000000,1.000000,0.000001,0.000001,0.000000
2.115000,0.000000,-0.000000,0.500000,0.000000,-0.000000,-0.000001,0.000015,-0.000011,-0.000039,0.000001,0.000001,0.000000,0.000028,0.000037,0.000000,0.000443,0.000579,0.000000,1.000000,0.000001,0.000001,0.000000
2.120000,0.000000,-0.000000,0.500000,0.000001,-0.000000,-0.000001,0.000017,-0.000013,-0.000044,0.000001,0.000002,0.000000,0.000031,0.000040,0.000000,0.000456,0.000596,0.000000,1.000000,0.000001,0.000001,0.000000
2.125000,0.000000,-0.000000,0.500000,0.000001,-0.000000,-0.000002,0.000019,-0.000014,-0.000049,0.000001,0.000002,0.000000,0.000033,0.000043,0.000000,0.000468,0.000612,0.000000,1.000000,0.000001,0.000001,0.000000
2.130000,0.000000,-0.000000,0.500000,0.000001,-0.000001,-0.000002,0.000021,-0.000016,-0.000055,0.000002,0.000002,0.000000,0.000035,0.000046,0.000000,0.000480,0.000628,0.000000,1.000000,0.000001,0.000001,0.000000
2.135000,0.000000,-0.000000,0.500000,0.000001,-0.000001,-0.000002,0.000023,-0.000018,-0.000061,0.000002,0.000002,0.000000,0.000038,0.000049,0.000000,0.000492,0.000642,0.000000,1.000000,0.000001,0.000001,0.000000
2.140000,0.000000,-0.000000,0.500000,0.000001,-0.000001,-0.000002,0.000026,-0.000020,-0.000068,0.000002,0.000003,0.000000,0.000040,0.000053,0.000000,0.000503,0.000657,0.000000,1.000000,0.000001,0.000001,0.000000
2.145000,0.000000,-0.000000,0.500000,0.000001,-0.000001,-0.000003,0.000028,-0.000022,-0.000075,0.000002,0.000003,0.000000,0.000043,0.000056,0.000000,0.000513,0.000670,0.000000,1.000000,0.000001,0.000001,0.000000
2.150000,0.000000,-0.000000,0.500000,0.000001,-0.000001,-0.000003,0.000031,-0.000024,-0.000082,0.000002,0.000003,0.000000,0.000045,0.000059,0.000000,0.000523,0.000683,0.000000,1.000000,0.000001,0.000002,0.000000
2.155000,0.000000,-0.000000,0.500000,0.000001,-0.000001,-0.000004,0.000034,-0.000026,-0.000090,0.000003,0.000003,0.000000,0.000048,0.000063,0.000000,0.000532,0.000696,0.000000,1.000000,0.000001,0.000002,0.000000
2.160000,0.000000,-0.000000,0.500000,0.000002,-0.000001,-0.000004,0.000037,-0.000029,-0.000098,0.000003,0.000004,0.000000,0.000051,0.000066,0.000000,0.000542,0.000708,0.000000,1.000000,0.000001,0.000002,0.000000
2.165000,0.000000,-0.000000,0.500000,0.000002,-0.000001,-0.000005,0.000041,-0.000031,-0.000107,0.000003,0.000004,0.000000,0.000053,0.000070,0.000000,0.000550,0.000719,0.000000,1.000000,0.000002,0.000002,0.000000
2.170000,0.000000,-0.000000,0.500000,0.000002,-0.000002,-0.000005,0.000044,-0.000034,-0.000116,0.000003,0.000004,0.000000,0.000056,0.000073,0.000000,0.000558,0.000730,0.000000,1.000000,0.000002,0.000002,0.000000
2.175000,0.000000,-0.000000,0.500000,0.000002,-0.000002,-0.000006,0.000048,-0.000037,-0.000126,0.000004,0.000005,0.000000,0.000059,0.000077,0.000000,0.000566,0.000740,0.000000,1.000000,0.000002,0.000002,0.000000
2.180000,0.000000,-0.000000,0.500000,0.000002,-0.000002,-0.000006,0.000052,-0.000040,-0.000136,0.000004,0.000005,0.000000,0.000062,0.000081,0.000000,0.000574,0.000750,0.000000,1.000000,0.000002,0.000003,0.000000
2.185000,0.000000,-0.000000,0.500000,0.000003,-0.000002,-0.000007,0.000056,-0.000043,-0.000147,0.000004,0.000006,0.000000,0.000065,0.000085,0.000000,0.000581,0.000759,0.000000,1.000000,0.000002,0.000003,0.000000
2.190000,0.000000,-0.000000,0.500000,0.000003,-0.000002,-0.000008,0.000060,-0.000046,-0.000158,0.000005,0.000006,0.000000,0.000068,0.000088,0.000000,0.000587,0.000767,0.000000,1.000000,0.000002,0.000003,0.000000
2.195000,0.000000,-0.000000,0.500000,0.000003,-0.000003,-0.000009,0.000064,-0.000049,-0.000170,0.000005,0.000007,0.000000,0.000071,0.000092,0.000000,0.000593,0.000775,0.000000,1.000000,0.000003,0.000003,0.000000
2.200000,0.000000,-0.000000,0.500000,0.000004,-0.000003,-0.000010,0.000069,-0.000053,-0.000182,0.000005,0.000007,0.000000,0.000074,0.000096,0.000000,0.000599,0.000783,0.000000,1.000000,0.000003,0.000004,0.000000
2.205000,0.000000,-0.000000,0.500000,0.000004,-0.000003,-0.000011,0.000074,-0.000057,-0.000195,0.000006,0.000008,0.000000,0.000077,0.000100,0.000000,0.000605,0.000790,0.000000,1.000000,0.000003,0.000004,0.000000
2.210000,0.000000,-0.000000,0.499999,0.000004,-0.000003,-0.000012,0.000079,-0.000060,-0.000208,0.000006,0.000008,0.000000,0.000080,0.000104,0.000000,0.000610,0.000796,0.000000,1.000000,0.000003,0.000004,0.000000
2.215000,0.000000,-0.000000,0.499999,0.000005,-0.000004,-0.000013,0.000084,-0.000064,-0.000222,0.000007,0.000009,0.000000,0.000083,0.000108,0.000000,0.000614,0.000803,0.000000,1.000000,0.000003,0.000004,0.000000
2.220000,0.000000,-0.000000,0.499999,0.000005,-0.000004,-0.000014,0.000089,-0.000068,-0.000236,0.000007,0.000009,0.000000,0.000086,0.000112,0.000000,0.000618,0.000808,0.000000,1.000000,0.000003,0.000005,0.000000
2.225000,0.000000,-0.000000,0.499999,0.000006,-0.000004,-0.000015,0.000095,-0.000073,-0.000251,0.000007,0.000010,0.000000,0.000089,0.000116,0.000000,0.000622,0.000813,0.000000,1.000000,0.000004,0.000005,0.000000
2.230000,0.000000,-0.000000,0.499999,0.000006,-0.000005,-0.000016,0.000101,-0.000077,-0.000266,0.000008,0.000010,0.000000,0.000092,0.000120,0.000000,0.000626,0.000818,0.000000,1.000000,0.000004,0.000005,0.000000
2.235000,0.000000,-0.000000,0.499999,0.000007,-0.000005,-0.000018,0.000107,-0.000082,-0.000282,0.000008,0.000011,0.000000,0.000095,0.000124,0.000000,0.000629,0.000822,0.000000,1.000000,0.000004,0.000005,0.000000
2.240000,0.000000,-0.000000,0.499999,0.000007,-0.000006,-0.000019,0.000113,-0.000087,-0.000298,0.000009,0.000012,0.000000,0.000098,0.000128,0.000000,0.000632,0.000826,0.000000,1.000000,0.000004,0.000006,0.000000
2.245000,0.000000,-0.000000,0.499999,0.000008,-0.000006,-0.000021,0.000119,-0.000091,-0.000315,0.000009,0.000012,0.000000,0.000101,0.000133,0.000000,0.000634,0.000829,0.000000,1.000000,0.000005,0.000006,0.000000
2.250000,0.000000,-0.000000,0.499999,0.000008,-0.000006,-0.000022,0.000126,-0.000096,-0.000333,0.000010,0.000013,0.000000,0.000105,0.000137,0.000000,0.000637,0.000832,0.000000,1.000000,0.000005,0.000006,0.000000
2.255000,0.000000,-0.000000,0.499999,0.000009,-0.000007,-0.000024,0.000133,-0.000102,-0.000351,0.000010,0.000014,0.000000,0.000108,0.000141,0.000000,0.000638,0.000834,0.000000,1.000000,0.000005,0.000007,0.000000
2.260000,0.000001,-0.000000,0.499999,0.000010,-0.000007,-0.000026,0.000140,-0.000107,-0.000369,0.000011,0.000014,0.000000,0.000111,0.000145,0.000000,0.000640,0.000836,0.000000,1.000000,0.000005,0.000007,0.000000
2.265000,0.000001,-0.000000,0.499998,0.000010,-0.000008,-0.000028,0.000147,-0.000113,-0.000388,0.000011,0.000015,0.000000,0.000114,0.000149,0.000000,0.000641,0.000838,0.000000,1.000000,0.000006,0.000007,0.000000
2.270000,0.000001,-0.000000,0.499998,0.000011,-0.000009,-0.000030,0.000155,-0.000118,-0.000408,0.000012,0.000016,0.000000,0.000117,0.000153,0.000000,0.000642,0.000839,0.000000,1.000000,0.000006,0.000008,0.000000
2.275000,0.000001,-0.000001,0.499998,0.000012,-0.000009,-0.000032,0.000162,-0.000124,-0.000428,0.000013,0.000017,0.000000,0.000121,0.000158,0.000000,0.000643,0.000840,0.000000,1.000000,0.000006,0.000008,0.000000
2.280000,0.000001,-0.000001,0.499998,0.000013,-0.000010,-0.000034,0.000170,-0.000130,-0.000449,0.000013,0.000017,0.000000,0.000124,0.000162,0.000000,0.000643,0.000840,0.000000,1.000000,0.000007,0.000009,0.000000
2.285000,0.000001,-0.000001,0.499998,0.000014,-0.000011,-0.000036,0.000178,-0.000136,-0.000470,0.000014,0.000018,0.000000,0.000127,0.000166,0.000000,0.000643,0.000840,0.000000,1.000000,0.000007,0.000009,0.000000
2.290000,0.000001,-0.000001,0.499998,0.000015,-0.000011,-0.000039,0.000186,-0.000143,-0.000492,0.000015,0.000019,0.000000,0.000130,0.000170,0.000000,0.000642,0.000839,0.000000,1.000000,0.000007,0.000009,0.000000
2.295000,0.000001,-0.000001,0.499997,0.000016,-0.000012,-0.000041,0.000195,-0.000149,-0.000514,0.000015,0.000020,0.000000,0.000134,0.000174,0.000000,0.000642,0.000839,0.000000,1.000000,0.000008,0.000010,0.000000
2.300000,0.000001,-0.000001,0.499997,0.000017,-0.000013,-0.000044,0.000203,-0.000156,-0.000537,0.000016,0.000021,0.000000,0.000137,0.000179,0.000000,0.000641,0.000837,0.000000,1.000000,0.000008,0.000010,0.000000
2.305000,0.000001,-0.000001,0.499997,0.000018,-0.000013,-0.000047,0.000212,-0.000162,-0.000560,0.000017,0.000022,0.000000,0.000140,0.000183,0.000000,0.000640,0.000836,0.000000,1.000000,0.000008,0.000011,0.000000
2.310000,0.000001,-0.000001,0.499997,0.000019,-0.000014,-0.000049,0.000221,-0.000169,-0.000584,0.000017,0.000023,0.000000,0.000143,0.000187,0.000000,0.000638,0.000834,0.000000,1.000000,0.000009,0.000011,0.000000
2.315000,0.000001,-0.000001,0.499997,0.000020,-0.000015,-0.000052,0.000231,-0.000176,-0.000609,0.000018,0.000024,0.000000,0.000146,0.000191,0.000000,0.000636,0.000831,0.000000,1.000000,0.000009,0.000012,0.000000
2.320000,0.000001,-0.000001,0.499996,0.000021,-0.000016,-0.000055,0.000240,-0.000184,-0.000634,0.000019,0.000024,0.000000,0.000149,0.000195,0.000000,0.000634,0.000829,0.000000,1.000000,0.000009,0.000012,0.000000
2.325000,0.000002,-0.000001,0.499996,0.000022,-0.000017,-0.000059,0.000250,-0.000191,-0.000659,0.000019,0.000025,0.000000,0.000153,0.000199,0.000000,0.000632,0.000826,0.000000,1.000000,0.000010,0.000013,0.000000
2.330000,0.000002,-0.000001,0.499996,0.000024,-0.000018,-0.000062,0.000260,-0.000199,-0.000685,0.000020,0.000026,0.000000,0.000156,0.000204,0.000000,0.000630,0.000823,0.000000,1.000000,0.000010,0.000013,0.000000
2.335000,0.000002,-0.000001,0.499995,0.000025,-0.000019,-0.000066,0.000270,-0.000206,-0.000712,0.000021,0.000027,0.000000,0.000159,0.000208,0.000000,0.000627,0.000819,0.000000,1.000000,0.000011,0.000014,0.000000
2.340000,0.000002,-0.000001,0.499995,0.000026,-0.000020,-0.000069,0.000280,-0.000214,-0.000739,0.000022,0.000029,0.000000,0.000162,0.000212,0.000000,0.000624,0.000815,0.000000,1.000000,0.000011,0.000014,0.000000
2.345000,0.000002,-0.000002,0.499995,0.000028,-0.000021,-0.000073,0.000290,-0.000222,-0.000767,0.000023,0.000030,0.000000,0.000165,0.000216,0.000000,0.000620,0.000811,0.000000,1.000000,0.000011,0.000015,0.000000
2.350000,0.000002,-0.000002,0.499994,0.000029,-0.000022,-0.000077,0.000301,-0.000230,-0.000795,0.000023,0.000031,0.000000,0.000168,0.000220,0.000000,0.000617,0.000806,0.000000,1.000000,0.000012,0.000015,0.000000
2.355000,0.000002,-0.000002,0.499994,0.000031,-0.000023,-0.000081,0.000312,-0.000239,-0.000824,0.000024,0.000032,0.000000,0.000171,0.000224,0.000000,0.000613,0.000801,0.000000,1.000000,0.000012,0.000016,0.000000
2.360000,0.000002,-0.000002,0.499993,0.000032,-0.000025,-0.000085,0.000323,-0.000247,-0.000853,0.000025,0.000033,0.000000,0.000174,0.000228,0.000000,0.000609,0.000796,0.000000,1.000000,0.000013,0.000016,0.000000
2.365000,0.000003,-0.000002,0.499993,0.000034,-0.000026,-0.000089,0.000334,-0.000256,-0.000883,0.000026,0.000034,0.000000,0.000177,0.000232,0.000000,0.000605,0.000790,0.000000,1.000000,0.000013,0.000017,0.000000
2.370000,0.000003,-0.000002,0.499993,0.000036,-0.000027,-0.000094,0.000346,-0.000265,-0.000913,0.000027,0.000035,0.000000,0.000180,0.000236,0.000000,0.000601,0.000785,0.000000,1.000000,0.000013,0.000018,0.000000
2.375000,0.000003,-0.000002,0.499992,0.000037,-0.000029,-0.000099,0.000358,-0.000274,-0.000944,0.000028,0.000036,0.000000,0.000183,0.000240,0.000000,0.000596,0.000779,0.000000,1.000000,0.000014,0.000018,0.000000
2.380000,0.000003,-0.000002,0.499992,0.000039,-0.000030,-0.000103,0.000369,-0.000283,-0.000975,0.000029,0.000038,0.000000,0.000186,0.000244,0.000000,0.000591,0.000772,0.000000,1.000000,0.000014,0.000019,0.000000
2.385000,0.000003,-0.000003,0.499991,0.000041,-0.000031,-0.000108,0.000381,-0.000292,-0.001007,0.000030,0.000039,0.000000,0.000189,0.000247,0.000000,0.000586,0.000766,0.000000,1.000000,0.000015,0.000019,0.000000
2.390000,0.000004,-0.000003,0.499990,0.000043,-0.000033,-0.000113,0.000394,-0.000301,-0.001039,0.000031,0.000040,0.000000,0.000192,0.000251,0.000000,0.000581,0.000759,0.000000,1.000000,0.000015,0.000020,0.000000
2.395000,0.000004,-0.000003,0.499990,0.000045,-0.000034,-0.000119,0.000406,-0.000311,-0.001072,0.000032,0.000041,0.000000,0.000195,0.000255,0.000000,0.000575,0.000752,0.000000,1.000000,0.000016,0.000021,0.000000
2.400000,0.000004,-0.000003,0.499989,0.000047,-0.000036,-0.000124,0.000419,-0.000320,-0.001105,0.000033,0.000043,0.000000,0.000198,0.000259,0.000000,0.000570,0.000744,0.000000,1.000000,0.000016,0.000021,0.000000
2.405000,0.000004,-0.000003,0.499989,0.000049,-0.000038,-0.000130,0.000431,-0.000330,-0.001139,0.000034,0.000044,0.000000,0.000201,0.000262,0.000000,0.000564,0.000737,0.000000,1.000000,0.000017,0.000022,0.000000
2.410000,0.000005,-0.000003,0.499988,0.000051,-0.000039,-0.000136,0.000444,-0.000340,-0.001173,0.000035,0.000045,0.000000,0.000204,0.000266,0.000000,0.000558,0.000729,0.000000,1.000000,0.000017,0.000023,0.000000
2.415000,0.000005,-0.000004,0.499987,0.000054,-0.000041,-0.000141,0.000458,-0.000350,-0.001208,0.000036,0.000047,0.000000,0.000206,0.000270,0.000000,0.000551,0.000721,0.000000,1.000000,0.000018,0.000023,0.000000
2.420000,0.000005,-0.000004,0.499987,0.000056,-0.000043,-0.000148,0.000471,-0.000360,-0.001243,0.000037,0.000048,0.000000,0.000209,0.000273,0.000000,0.000545,0.000712,0.000000,1.000000,0.000018,0.000024,0.000000
2.425000,0.000005,-0.000004,0.499986,0.000058,-0.000045,-0.000154,0.000484,-0.000371,-0.001278,0.000038,0.000049,0.000000,0.000212,0.000277,0.000000,0.000539,0.000704,0.000000,1.000000,0.000019,0.000025,0.000000
2.430000,0.000006,-0.000004,0.499985,0.000061,-0.000047,-0.000160,0.000498,-0.000381,-0.001314,0.000039,0.000051,0.000000,0.000215,0.000280,0.000000,0.000532,0.000695,0.000000,1.000000,0.000019,0.000025,0.000000
2.435000,0.000006,-0.000005,0.499984,0.000063,-0.000048,-0.000167,0.000512,-0.000392,-0.001351,0.000040,0.000052,0.000000,0.000217,0.000284,0.000000,0.000525,0.000686,0.000000,1.000000,0.000020,0.000026,0.000000
2.440000,0.000006,-0.000005,0.499983,0.000066,-0.000050,-0.000174,0.000526,-0.000402,-0.001388,0.000041,0.000054,0.000000,0.000220,0.000287,0.000000,0.000518,0.000677,0.000000,1.000000,0.000021,0.000027,0.000000
2.445000,0.000007,-0.000005,0.499982,0.000069,-0.000052,-0.000181,0.000540,-0.000413,-0.001425,0.000042,0.000055,0.000000,0.000222,0.000291,0.000000,0.000511,0.000667,0.000000,1.000000,0.000021,0.000028,0.000000
2.450000,0.000007,-0.000005,0.499982,0.000071,-0.000055,-0.000188,0.000554,-0.000424,-0.001463,0.000043,0.000057,0.000000,0.000225,0.000294,0.000000,0.000503,0.000657,0.000000,1.000000,0.000022,0.000028,0.000000
2.455000,0.000007,-0.000006,0.499981,0.000074,-0.000057,-0.000196,0.000569,-0.000435,-0.001501,0.000044,0.000058,0.000000,0.000227,0.000297,0.000000,0.000496,0.000648,0.000000,1.000000,0.000022,0.000029,0.000000
2.460000,0.000008,-0.000006,0.499980,0.000077,-0.000059,-0.000203,0.000583,-0.000447,-0.001540,0.000046,0.000059,0.000000,0.000230,0.000300,0.000000,0.000488,0.000638,0.000000,1.000000,0.000023,0.000030,0.000000
2.465000,0.000008,-0.000006,0.499979,0.000080,-0.000061,-0.000211,0.000598,-0.000458,-0.001579,0.000047,0.000061,0.000000,0.000232,0.000304,0.000000,0.000480,0.000627,0.000000,1.000000,0.000023,0.000030,0.000000
2.470000,0.000009,-0.000007,0.499978,0.000083,-0.000063,-0.000219,0.000613,-0.000469,-0.001619,0.000048,0.000063,0.000000,0.000235,0.000307,0.000000,0.000472,0.000617,0.000000,1.000000,0.000024,0.000031,0.000000
2.475000,0.000009,-0.000007,0.499976,0.000086,-0.000066,-0.000227,0.000628,-0.000481,-0.001658,0.000049,0.000064,0.000000,0.000237,0.000310,0.000000,0.000464,0.000606,0.000000,1.000000,0.000025,0.000032,0.000000
2.480000,0.000009,-0.000007,0.499975,0.000089,-0.000068,-0.000236,0.000644,-0.000493,-0.001699,0.000050,0.000066,0.000000,0.000239,0.000313,0.000000,0.000456,0.000596,0.000000,1.000000,0.000025,0.000033,0.000000
2.485000,0.000010,-0.000008,0.499974,0.000092,-0.000071,-0.000244,0.000659,-0.000504,-0.001739,0.000051,0.000067,0.000000,0.000242,0.000316,0.000000,0.000447,0.000585,0.000000,1.000000,0.000026,0.000034,0.000000
2.490000,0.000010,-0.000008,0.499973,0.000096,-0.000073,-0.000253,0.000675,-0.000516,-0.001780,0.000053,0.000069,0.000000,0.000244,0.000319,0.000000,0.000439,0.000574,0.000000,1.000000,0.000026,0.000034,0.000000
2.495000,0.000011,-0.000008,0.499972,0.000099,-0.000076,-0.000262,0.000690,-0.000528,-0.001822,0.000054,0.000070,0.000000,0.000246,0.000321,0.000000,0.000430,0.000562,0.000000,1.000000,0.000027,0.000035,0.000000
2.500000,0.000011,-0.000009,0.499970,0.000103,-0.000079,-0.000271,0.000706,-0.000540,-0.001864,0.000055,0.000072,0.000000,0.000248,0.000324,0.000000,0.000422,0.000551,0.000000,1.000000,0.000028,0.000036,0.000000
2.505000,0.000012,-0.000009,0.499969,0.000106,-0.000081,-0.000281,0.000722,-0.000553,-0.001906,0.000056,0.000074,0.000000,0.000250,0.000327,0.000000,0.000413,0.000539,0.000000,1.000000,0.000028,0.000037,0.000000
2.510000,0.000012,-0.000009,0.499967,0.000110,-0.000084,-0.000290,0.000738,-0.000565,-0.001948,0.000058,0.000075,0.000000,0.000252,0.000330,0.000000,0.000404,0.000528,0.000000,1.000000,0.000029,0.000038,0.000000
2.515000,0.000013,-0.000010,0.499966,0.000114,-0.000087,-0.000300,0.000754,-0.000577,-0.001991,0.000059,0.000077,0.000000,0.000254,0.000332,0.000000,0.000395,0.000516,0.000000,1.000000,0.000029,0.000038,0.000000
2.520000,0.000014,-0.000010,0.499964,0.000117,-0.000090,-0.000310,0.000771,-0.000590,-0.002034,0.000060,0.000079,0.000000,0.000256,0.000335,0.000000,0.000386,0.000504,0.000000,1.000000,0.000030,0.000039,0.000000
2.525000,0.000014,-0.000011,0.499963,0.000121,-0.000093,-0.000320,0.000787,-0.000602,-0.002078,0.000061,0.000080,0.000000,0.000258,0.000337,0.000000,0.000376,0.000492,0.000000,1.000000,0.000031,0.000040,0.000000
2.530000,0.000015,-0.000011,0.499961,0.000125,-0.000096,-0.000331,0.000804,-0.000615,-0.002121,0.000063,0.000082,0.000000,0.000260,0.000340,0.000000,0.000367,0.000479,0.000000,1.000000,0.000031,0.000041,0.000000
2.535000,0.000015,-0.000012,0.499959,0.000129,-0.000099,-0.000342,0.000820,-0.000628,-0.002166,0.000064,0.000084,0.000000,0.000262,0.000342,0.000000,0.000357,0.000467,0.000000,1.000000,0.000032,0.000042,0.000000
2.540000,0.000016,-0.000012,0.499958,0.000134,-0.000102,-0.000353,0.000837,-0.000641,-0.002210,0.000065,0.000085,0.000000,0.000264,0.000344,0.000000,0.000348,0.000455,0.000000,1.000000,0.000033,0.000043,0.000000
2.545000,0.000017,-0.000013,0.499956,0.000138,-0.000105,-0.000364,0.000854,-0.000654,-0.002255,0.000067,0.000087,0.000000,0.000265,0.000347,0.000000,0.000338,0.000442,0.000000,1.000000,0.000033,0.000044,0.000000
2.550000,0.000017,-0.000013,0.499954,0.000142,-0.000109,-0.000375,0.000871,-0.000667,-0.002300,0.000068,0.000089,0.000000,0.000267,0.000349,0.000000,0.000329,0.000429,0.000000,1.000000,0.000034,0.000044,0.000000
2.555000,0.000018,-0.000014,0.499952,0.000147,-0.000112,-0.000387,0.000888,-0.000680,-0.002345,0.000069,0.000091,0.000000,0.000269,0.000351,0.000000,0.000319,0.000416,0.000000,1.000000,0.000035,0.000045,0.000000
2.560000,0.000019,-0.000014,0.499950,0.000151,-0.000116,-0.000399,0.000906,-0.000693,-0.002390,0.000071,0.000092,0.000000,0.000270,0.000353,0.000000,0.000309,0.000404,0.000000,1.000000,0.000035,0.000046,0.000000
2.565000,0.000020,-0.000015,0.499948,0.000156,-0.000119,-0.000411,0.000923,-0.000706,-0.002436,0.000072,0.000094,0.000000,0.000272,0.000355,0.000000,0.000299,0.000391,0.000000,1.000000,0.000036,0.000047,0.000000
2.570000,0.000020,-0.000016,0.499946,0.000160,-0.000123,-0.000423,0.000940,-0.000720,-0.002482,0.000073,0.000096,0.000000,0.000273,0.000357,0.000000,0.000289,0.000377,0.000000,1.000000,0.000037,0.000048,0.000000
2.575000,0.000021,-0.000016,0.499944,0.000165,-0.000126,-0.000435,0.000958,-0.000733,-0.002529,0.000075,0.000098,0.000000,0.000274,0.000359,0.000000,0.000279,0.000364,0.000000,1.000000,0.000037,0.000049,0.000000
2.580000,0.000022,-0.000017,0.499942,0.000170,-0.000130,-0.000448,0.000976,-0.000747,-0.002575,0.000076,0.000099,0.000000,0.000276,0.000360,0.000000,0.000269,0.000351,0.000000,1.000000,0.000038,0.000050,0.000000
2.585000,0.000023,-0.000018,0.499940,0.000175,-0.000134,-0.000461,0.000993,-0.000760,-0.002622,0.000078,0.000101,0.000000,0.000277,0.000362,0.000000,0.000258,0.000337,0.000000,1.000000,0.000039,0.000051,0.000000
2.590000,0.000024,-0.000018,0.499937,0.000180,-0.000138,-0.000474,0.001011,-0.000774,-0.002669,0.000079,0.000103,0.000000,0.000278,0.000364,0.000000,0.000248,0.000324,0.000000,1.000000,0.000039,0.000052,0.000000
2.595000,0.000025,-0.000019,0.499935,0.000185,-0.000141,-0.000488,0.001029,-0.000788,-0.002716,0.000080,0.000105,0.000000,0.000280,0.000365,0.000000,0.000238,0.000310,0.000000,1.000000,0.000040,0.000052,0.000000
2.600000,0.000026,-0.000020,0.499932,0.000190,-0.000145,-0.000502,0.001047,-0.000801,-0.002763,0.000082,0.000107,0.000000,0.000281,0.000367,0.000000,0.000227,0.000297,0.000000,1.000000,0.000041,0.000053,0.000000
2.605000,0.000027,-0.000020,0.499930,0.000195,-0.000149,-0.000516,0.001065,-0.000815,-0.002811,0.000083,0.000109,0.000000,0.000282,0.000368,0.000000,0.000217,0.000283,0.000000,1.000000,0.000042,0.000054,0.000000
2.610000,0.000028,-0.000021,0.499927,0.000201,-0.000154,-0.000530,0.001083,-0.000829,-0.002859,0.000085,0.000110,0.000000,0.000283,0.000370,0.000000,0.000206,0.000269,0.000000,1.000000,0.000042,0.000055,0.000000
2.615000,0.000029,-0.000022,0.499924,0.000206,-0.000158,-0.000544,0.001101,-0.000843,-0.002907,0.000086,0.000112,0.000000,0.000284,0.000371,0.000000,0.000196,0.000256,0.000000,1.000000,0.000043,0.000056,0.000000
2.620000,0.000030,-0.000023,0.499922,0.000212,-0.000162,-0.000559,0.001119,-0.000857,-0.002955,0.000087,0.000114,0.000000,0.000285,0.000372,0.000000,0.000185,0.000242,0.000000,1.000000,0.000044,0.000057,0.000000
2.625000,0.000031,-0.000024,0.499919,0.000217,-0.000166,-0.000574,0.001138,-0.000871,-0.003003,0.000089,0.000116,0.000000,0.000286,0.000373,0.000000,0.000174,0.000228,0.000000,1.000000,0.000044,0.000058,0.000000
2.630000,0.000032,-0.000024,0.499916,0.000223,-0.000171,-0.000589,0.001156,-0.000885,-0.003051,0.000090,0.000118,0.000000,0.000287,0.000375,0.000000,0.000164,0.000214,0.000000,1.000000,0.000045,0.000059,0.000000
2.635000,0.000033,-0.000025,0.499913,0.000229,-0.000175,-0.000604,0.001174,-0.000899,-0.003100,0.000092,0.000120,0.000000,0.000287,0.000376,0.000000,0.000153,0.000200,0.000000,1.000000,0.000046,0.000060,0.000000
2.640000,0.000034,-0.000026,0.499910,0.000235,-0.000180,-0.000620,0.001193,-0.000913,-0.003149,0.000093,0.000122,0.000000,0.000288,0.000377,0.000000,0.000142,0.000186,0.000000,1.000000,0.000047,0.000061,0.000000
2.645000,0.000035,-0.000027,0.499907,0.000241,-0.000184,-0.000636,0.001211,-0.000927,-0.003197,0.000095,0.000124,0.000000,0.000289,0.000377,0.000000,0.000131,0.000172,0.000000,1.000000,0.000047,0.000062,0.000000
2.650000,0.000037,-0.000028,0.499904,0.000247,-0.000189,-0.000652,0.001230,-0.000941,-0.003246,0.000096,0.000125,0.000000,0.000290,0.000378,0.000000,0.000121,0.000157,0.000000,1.000000,0.000048,0.000063,0.000000
2.655000,0.000038,-0.000029,0.499900,0.000253,-0.000194,-0.000668,0.001248,-0.000955,-0.003295,0.000097,0.000127,0.000000,0.000290,0.000379,0.000000,0.000110,0.000143,0.000000,1.000000,0.000049,0.000064,0.000000
2.660000,0.000039,-0.000030,0.499897,0.000259,-0.000199,-0.000685,0.001267,-0.000970,-0.003344,0.000099,0.000129,0.000000,0.000291,0.000380,0.000000,0.000099,0.000129,0.000000,1.000000,0.000049,0.000065,0.000000
2.665000,0.000040,-0.000031,0.499893,0.000266,-0.000203,-0.000702,0.001286,-0.000984,-0.003393,0.000100,0.000131,0.000000,0.000291,0.000380,0.000000,0.000088,0.000115,0.000000,1.000000,0.000050,0.000066,0.000000
2.670000,0.000042,-0.000032,0.499890,0.000272,-0.000208,-0.000719,0.001304,-0.000998,-0.003443,0.000102,0.000133,0.000000,0.000291,0.000381,0.000000,0.000077,0.000101,0.000000,1.000000,0.000051,0.000067,0.000000
2.675000,0.000043,-0.000033,0.499886,0.000279,-0.000213,-0.000736,0.001323,-0.001013,-0.003492,0.000103,0.000135,0.000000,0.000292,0.000381,0.000000,0.000066,0.000086,0.000000,1.000000,0.000052,0.000067,0.000000
2.680000,0.000045,-0.000034,0.499882,0.000285,-0.000219,-0.000754,0.001342,-0.001027,-0.003541,0.000105,0.000137,0.000000,0.000292,0.000382,0.000000,0.000055,0.000072,0.000000,1.000000,0.000052,0.000068,0.000000
2.685000,0.000046,-0.000035,0.499879,0.000292,-0.000224,-0.000771,0.001360,-0.001041,-0.003591,0.000106,0.000139,0.000000,0.000292,0.000382,0.000000,0.000044,0.000058,0.000000,1.000000,0.000053,0.000069,0.000000
2.690000,0.000047,-0.000036,0.499875,0.000299,-0.000229,-0.000789,0.001379,-0.001056,-0.003640,0.000108,0.000141,0.000000,0.000293,0.000382,0.000000,0.000033,0.000043,0.000000,1.000000,0.000054,0.000070,0.000000
2.695000,0.000049,-0.000037,0.499871,0.000306,-0.000234,-0.000808,0.001398,-0.001070,-0.003690,0.000109,0.000143,0.000000,0.000293,0.000382,0.000000,0.000022,0.000029,0.000000,1.000000,0.000055,0.000071,0.000000
2.700000,0.000051,-0.000039,0.499867,0.000313,-0.000240,-0.000826,0.001417,-0.001084,-0.003739,0.000111,0.000144,0.000000,0.000293,0.000383,0.000000,0.000011,0.000015,0.000000,1.000000,0.000055,0.000072,0.000000
2.705000,0.000052,-0.000040,0.499863,0.000320,-0.000245,-0.000845,0.001435,-0.001099,-0.003789,0.000112,0.000146,0.000000,0.000293,0.000383,0.000000,0.000000,0.000000,0.000000,1.000000,0.000056,0.000073,0.000000
2.710000,0.000054,-0.000041,0.499858,0.000327,-0.000251,-0.000864,0.001454,-0.001113,-0.003838,0.000113,0.000148,0.000000,0.000293,0.000383,0.000000,-0.000011,-0.000014,0.000000,1.000000,0.000057,0.000074,0.000000
2.715000,0.000055,-0.000042,0.499854,0.000335,-0.000256,-0.000884,0.001473,-0.001127,-0.003888,0.000115,0.000150,0.000000,0.000293,0.000382,0.000000,-0.000022,-0.000028,0.000001,1.000000,0.000057,0.000075,0.000000
2.720000,0.000057,-0.000044,0.499849,0.000342,-0.000262,-0.000903,0.001492,-0.001142,-0.003937,0.000116,0.000152,0.000000,0.000293,0.000382,0.000000,-0.000033,-0.000043,0.000001,1.000000,0.000058,0.000076,0.000000
2.725000,0.000059,-0.000045,0.499845,0.000350,-0.000268,-0.000923,0.001510,-0.001156,-0.003987,0.000118,0.000154,0.000000,0.000292,0.000382,0.000000,-0.000044,-0.000057,0.000001,1.000000,0.000059,0.000077,0.000000
2.730000,0.000061,-0.000046,0.499840,0.000357,-0.000273,-0.000943,0.001529,-0.001170,-0.004036,0.000119,0.000156,0.000000,0.000292,0.000382,0.000000,-0.000055,-0.000071,0.000001,1.000000,0.000060,0.000078,0.000000
2.735000,0.000062,-0.000048,0.499835,0.000365,-0.000279,-0.000963,0.001548,-0.001185,-0.004085,0.000121,0.000158,0.000000,0.000292,0.000381,0.000000,-0.000066,-0.000086,0.000001,1.000000,0.000060,0.000079,0.000000
2.740000,0.000064,-0.000049,0.499831,0.000373,-0.000285,-0.000984,0.001566,-0.001199,-0.004135,0.000122,0.000160,0.000000,0.000292,0.000381,0.000000,-0.000077,-0.000100,0.000001,1.000000,0.000061,0.000080,0.000000
2.745000,0.000066,-0.000051,0.499826,0.000381,-0.000291,-0.001005,0.001585,-0.001213,-0.004184,0.000124,0.000162,0.000000,0.000291,0.000380,0.000000,-0.000087,-0.000114,0.000001,1.000000,0.000062,0.000081,0.000000
2.750000,0.000068,-0.000052,0.499821,0.000389,-0.000297,-0.001026,0.001604,-0.001227,-0.004233,0.000125,0.000164,0.000000,0.000291,0.000380,0.000000,-0.000098,-0.000129,0.000001,1.000000,0.000063,0.000082,0.000000
2.755000,0.000070,-0.000054,0.499815,0.000397,-0.000304,-0.001047,0.001622,-0.001242,-0.004282,0.000127,0.000165,0.000000,0.000290,0.000379,0.000000,-0.000109,-0.000143,0.000001,1.000000,0.000063,0.000083,0.000000
2.760000,0.000072,-0.000055,0.499810,0.000405,-0.000310,-0.001069,0.001641,-0.001256,-0.004331,0.000128,0.000167,0.000000,0.000290,0.000378,0.000000,-0.000120,-0.000157,0.000001,1.000000,0.000064,0.000084,0.000000
2.765000,0.000074,-0.000057,0.499805,0.000413,-0.000316,-0.001090,0.001659,-0.001270,-0.004380,0.000130,0.000169,0.000000,0.000289,0.000377,0.000000,-0.000131,-0.000171,0.000001,1.000000,0.000065,0.000085,0.000000
2.770000,0.000076,-0.000058,0.499799,0.000421,-0.000323,-0.001112,0.001678,-0.001284,-0.004429,0.000131,0.000171,0.000000,0.000288,0.000377,0.000000,-0.000142,-0.000185,0.000001,1.000000,0.000065,0.000086,0.000000
2.775000,0.000078,-0.000060,0.499794,0.000430,-0.000329,-0.001135,0.001696,-0.001298,-0.004477,0.000132,0.000173,0.000000,0.000287,0.000376,0.000000,-0.000153,-0.000199,0.000001,1.000000,0.000066,0.000086,0.000000
2.780000,0.000080,-0.000062,0.499788,0.000438,-0.000336,-0.001157,0.001715,-0.001312,-0.004526,0.000134,0.000175,0.000000,0.000287,0.000375,0.000000,-0.000163,-0.000213,0.000001,1.000000,0.000067,0.000087,0.000000
2.785000,0.000083,-0.000063,0.499782,0.000447,-0.000342,-0.001180,0.001733,-0.001326,-0.004574,0.000135,0.000177,0.000000,0.000286,0.000374,0.000000,-0.000174,-0.000228,0.000001,1.000000,0.000068,0.000088,0.000000
2.790000,0.000085,-0.000065,0.499776,0.000456,-0.000349,-0.001203,0.001751,-0.001340,-0.004623,0.000137,0.000179,0.000000,0.000285,0.000372,0.000000,-0.000185,-0.000242,0.000001,1.000000,0.000068,0.000089,0.000000
2.795000,0.000087,-0.000067,0.499770,0.000465,-0.000356,-0.001226,0.001770,-0.001354,-0.004671,0.000138,0.000180,0.000000,0.000284,0.000371,0.000000,-0.000196,-0.000255,0.000001,1.000000,0.000069,0.000090,0.000000
2.800000,0.000090,-0.000069,0.499764,0.000473,-0.000362,-0.001250,0.001788,-0.001368,-0.004719,0.000140,0.000182,0.000000,0.000283,0.000370,0.000000,-0.000206,-0.000269,0.000001,1.000000,0.000070,0.000091,0.000000
2.805000,0.000092,-0.000070,0.499757,0.000482,-0.000369,-0.001273,0.001806,-0.001382,-0.004766,0.000141,0.000184,0.000000,0.000282,0.000368,0.000000,-0.000217,-0.000283,0.000001,1.000000,0.000070,0.000092,0.000000
2.810000,0.000094,-0.000072,0.499751,0.000491,-0.000376,-0.001297,0.001824,-0.001396,-0.004814,0.000142,0.000186,0.000000,0.000281,0.000367,0.000000,-0.000227,-0.000297,0.000001,1.000000,0.000071,0.000093,0.000000
2.815000,0.000097,-0.000074,0.499744,0.000501,-0.000383,-0.001321,0.001842,-0.001410,-0.004861,0.000144,0.000188,0.000000,0.000280,0.000365,0.000000,-0.000238,-0.000311,0.000001,1.000000,0.000072,0.000094,0.000000
2.820000,0.000099,-0.000076,0.499738,0.000510,-0.000390,-0.001346,0.001860,-0.001423,-0.004908,0.000145,0.000190,0.000000,0.000278,0.000364,0.000000,-0.000248,-0.000324,0.000001,1.000000,0.000073,0.000095,0.000000
2.825000,0.000102,-0.000078,0.499731,0.000519,-0.000397,-0.001370,0.001877,-0.001437,-0.004955,0.000147,0.000191,0.000000,0.000277,0.000362,0.000000,-0.000259,-0.000338,0.000001,1.000000,0.000073,0.000096,0.000000
2.830000,0.000105,-0.000080,0.499724,0.000529,-0.000405,-0.001395,0.001895,-0.001450,-0.005002,0.000148,0.000193,0.000000,0.000276,0.000360,0.000000,-0.000269,-0.000352,0.000001,1.000000,0.000074,0.000097,0.000000
2.835000,0.000107,-0.000082,0.499717,0.000538,-0.000412,-0.001421,0.001913,-0.001464,-0.005049,0.000149,0.000195,0.000000,0.000275,0.000359,0.000000,-0.000280,-0.000365,0.000001,1.000000,0.000075,0.000098,0.000000
2.840000,0.000110,-0.000084,0.499710,0.000548,-0.000419,-0.001446,0.001930,-0.001477,-0.005095,0.000151,0.000197,0.000000,0.000273,0.000357,0.000000,-0.000290,-0.000379,0.000001,1.000000,0.000075,0.000098,0.000000
2.845000,0.000113,-0.000086,0.499703,0.000557,-0.000427,-0.001471,0.001948,-0.001491,-0.005141,0.000152,0.000199,0.000000,0.000272,0.000355,0.000000,-0.000300,-0.000392,0.000001,1.000000,0.000076,0.000099,0.000000
2.850000,0.000115,-0.000088,0.499695,0.000567,-0.000434,-0.001497,0.001965,-0.001504,-0.005187,0.000153,0.000200,0.000000,0.000270,0.000353,0.000000,-0.000310,-0.000405,0.000001,1.000000,0.000077,0.000100,0.000000
2.855000,0.000118,-0.000091,0.499688,0.000577,-0.000442,-0.001523,0.001982,-0.001517,-0.005232,0.000155,0.000202,0.000000,0.000268,0.000351,0.000000,-0.000320,-0.000419,0.000001,1.000000,0.000077,0.000101,0.000000
2.860000,0.000121,-0.000093,0.499680,0.000587,-0.000449,-0.001550,0.001999,-0.001530,-0.005277,0.000156,0.000204,0.000000,0.000267,0.000349,0.000000,-0.000331,-0.000432,0.000001,1.000000,0.000078,0.000102,0.000000
2.865000,0.000124,-0.000095,0.499672,0.000597,-0.000457,-0.001576,0.002016,-0.001543,-0.005322,0.000157,0.000206,0.000000,0.000265,0.000347,0.000000,-0.000341,-0.000445,0.000001,1.000000,0.000079,0.000103,0.000000
2.870000,0.000127,-0.000097,0.499664,0.000607,-0.000465,-0.001603,0.002033,-0.001556,-0.005367,0.000159,0.000207,0.000000,0.000263,0.000344,0.000000,-0.000351,-0.000458,0.000001,1.000000,0.000079,0.000104,0.000000
2.875000,0.000130,-0.000100,0.499656,0.000617,-0.000473,-0.001630,0.002050,-0.001569,-0.005411,0.000160,0.000209,0.000000,0.000262,0.000342,0.000000,-0.000360,-0.000471,0.000001,1.000000,0.000080,0.000105,0.000000
2.880000,0.000133,-0.000102,0.499648,0.000628,-0.000480,-0.001657,0.002067,-0.001582,-0.005455,0.000161,0.000211,0.000000,0.000260,0.000340,0.000000,-0.000370,-0.000484,0.000001,1.000000,0.000081,0.000105,0.000000
2.885000,0.000137,-0.000105,0.499640,0.000638,-0.000488,-0.001684,0.002083,-0.001595,-0.005499,0.000163,0.000212,0.000000,0.000258,0.000337,0.000000,-0.000380,-0.000497,0.000001,1.000000,0.000081,0.000106,0.000000
2.890000,0.000140,-0.000107,0.499631,0.000649,-0.000496,-0.001712,0.002100,-0.001607,-0.005543,0.000164,0.000214,0.000000,0.000256,0.000335,0.000000,-0.000390,-0.000509,0.000001,1.000000,0.000082,0.000107,0.000000
2.895000,0.000143,-0.000109,0.499622,0.000659,-0.000504,-0.001740,0.002116,-0.001620,-0.005586,0.000165,0.000216,0.000000,0.000254,0.000332,0.000000,-0.000400,-0.000522,0.000001,1.000000,0.000083,0.000108,0.000000
2.900000,0.000146,-0.000112,0.499614,0.000670,-0.000513,-0.001768,0.002132,-0.001632,-0.005629,0.000166,0.000217,0.000000,0.000252,0.000329,0.000000,-0.000409,-0.000535,0.000001,1.000000,0.000083,0.000109,0.000000
2.905000,0.000150,-0.000115,0.499605,0.000680,-0.000521,-0.001796,0.002148,-0.001644,-0.005671,0.000168,0.000219,0.000000,0.000250,0.000327,0.000000,-0.000419,-0.000547,0.000001,1.000000,0.000084,0.000110,0.000000
2.910000,0.000153,-0.000117,0.499596,0.000691,-0.000529,-0.001824,0.002164,-0.001657,-0.005713,0.000169,0.000221,0.000000,0.000248,0.000324,0.000000,-0.000428,-0.000559,0.000001,1.000000,0.000084,0.000110,0.000000
2.915000,0.000157,-0.000120,0.499586,0.000702,-0.000537,-0.001853,0.002180,-0.001669,-0.005755,0.000170,0.000222,0.000000,0.000246,0.000321,0.000000,-0.000438,-0.000572,0.000001,1.000000,0.000085,0.000111,0.000000
2.920000,0.000160,-0.000123,0.499577,0.000713,-0.000546,-0.001882,0.002196,-0.001681,-0.005796,0.000171,0.000224,0.000000,0.000244,0.000318,0.000000,-0.000447,-0.000584,0.000001,1.000000,0.000086,0.000112,0.000000
2.925000,0.000164,-0.000125,0.499568,0.000724,-0.000554,-0.001911,0.002211,-0.001692,-0.005837,0.000173,0.000226,0.000000,0.000241,0.000315,0.000000,-0.000456,-0.000596,0.000001,1.000000,0.000086,0.000113,0.000000
2.930000,0.000167,-0.000128,0.499558,0.000735,-0.000563,-0.001940,0.002227,-0.001704,-0.005878,0.000174,0.000227,0.000000,0.000239,0.000312,0.000000,-0.000465,-0.000608,0.000001,1.000000,0.000087,0.000114,0.000000
2.935000,0.000171,-0.000131,0.499548,0.000746,-0.000571,-0.001970,0.002242,-0.001716,-0.005918,0.000175,0.000229,0.000000,0.000237,0.000309,0.000000,-0.000474,-0.000620,0.000001,1.000000,0.000088,0.000114,0.000000
2.940000,0.000175,-0.000134,0.499538,0.000758,-0.000580,-0.002000,0.002257,-0.001727,-0.005957,0.000176,0.000230,0.000000,0.000234,0.000306,0.000000,-0.000483,-0.000632,0.000001,1.000000,0.000088,0.000115,0.000000
2.945000,0.000179,-0.000137,0.499528,0.000769,-0.000588,-0.002029,0.002272,-0.001739,-0.005997,0.000177,0.000232,0.000000,0.000232,0.000303,0.000000,-0.000492,-0.000643,0.000001,1.000000,0.000089,0.000116,0.000000
2.950000,0.000183,-0.000140,0.499518,0.000780,-0.000597,-0.002060,0.002287,-0.001750,-0.006036,0.000179,0.000233,0.000000,0.000229,0.000300,0.000000,-0.000501,-0.000655,0.000001,1.000000,0.000089,0.000117,0.000000
2.955000,0.000187,-0.000143,0.499508,0.000792,-0.000606,-0.002090,0.002301,-0.001761,-0.006074,0.000180,0.000235,0.000000,0.000227,0.000296,0.000000,-0.000510,-0.000667,0.000001,1.000000,0.000090,0.000117,0.000000
2.960000,0.000191,-0.000146,0.499497,0.000803,-0.000615,-0.002120,0.002316,-0.001772,-0.006112,0.000181,0.000236,0.000000,0.000224,0.000293,0.000000,-0.000519,-0.000678,0.000001,1.000000,0.000090,0.000118,0.000000
2.965000,0.000195,-0.000149,0.499486,0.000815,-0.000624,-0.002151,0.002330,-0.001783,-0.006150,0.000182,0.000238,0.000000,0.000222,0.000289,0.000000,-0.000527,-0.000689,0.000001,1.000000,0.000091,0.000119,0.000000
2.970000,0.000199,-0.000152,0.499476,0.000827,-0.000633,-0.002182,0.002344,-0.001794,-0.006187,0.000183,0.000239,0.000000,0.000219,0.000286,0.000000,-0.000536,-0.000700,0.000001,1.000000,0.000091,0.000120,0.000000
2.975000,0.000203,-0.000155,0.499465,0.000838,-0.000642,-0.002213,0.002358,-0.001805,-0.006224,0.000184,0.000241,0.000000,0.000216,0.000282,0.000000,-0.000545,-0.000712,0.000001,1.000000,0.000092,0.000120,0.000000
2.980000,0.000207,-0.000158,0.499453,0.000850,-0.000651,-0.002244,0.002372,-0.001815,-0.006260,0.000185,0.000242,0.000000,0.000213,0.000279,0.000000,-0.000553,-0.000722,0.000001,1.000000,0.000093,0.000121,0.000000
2.985000,0.000211,-0.000162,0.499442,0.000862,-0.000660,-0.002275,0.002385,-0.001826,-0.006296,0.000186,0.000243,0.000000,0.000211,0.000275,0.000000,-0.000561,-0.000733,0.000001,1.000000,0.000093,0.000122,0.000000
2.990000,0.000216,-0.000165,0.499431,0.000874,-0.000669,-0.002307,0.002399,-0.001836,-0.006332,0.000187,0.000245,0.000000,0.000208,0.000272,0.000000,-0.000569,-0.000744,0.000001,1.000000,0.000094,0.000122,0.000000
2.995000,0.000220,-0.000168,0.499419,0.000886,-0.000678,-0.002339,0.002412,-0.001846,-0.006366,0.000188,0.000246,0.000000,0.000205,0.000268,0.000000,-0.000578,-0.000755,0.000001,1.000000,0.000094,0.000123,0.000000
3.000000,0.000225,-0.000172,0.499407,0.000898,-0.000687,-0.002371,0.002425,-0.001856,-0.006401,0.000189,0.000247,0.000000,0.000202,0.000264,0.000000,-0.000586,-0.000765,0.000001,1.000000,0.000095,0.000124,0.000000
3.005000,0.000229,-0.000175,0.499395,0.000910,-0.000697,-0.002403,0.002438,-0.001866,-0.006435,0.000190,0.000249,0.000000,0.000199,0.000260,0.000000,-0.000594,-0.000776,0.000001,1.000000,0.000095,0.000124,0.000000
3.010000,0.000234,-0.000179,0.499383,0.000923,-0.000706,-0.002435,0.002450,-0.001875,-0.006468,0.000191,0.000250,0.000000,0.000196,0.000256,0.000000,-0.000602,-0.000786,0.000001,1.000000,0.000096,0.000125,0.000000
3.015000,0.000238,-0.000182,0.499371,0.000935,-0.000715,-0.002467,0.002463,-0.001885,-0.006501,0.000192,0.000251,0.000000,0.000193,0.000252,0.000000,-0.000609,-0.000796,0.000001,1.000000,0.000096,0.000126,0.000000
3.020000,0.000243,-0.000186,0.499359,0.000947,-0.000725,-0.002500,0.002475,-0.001894,-0.006533,0.000193,0.000252,0.000000,0.000190,0.000248,0.000000,-0.000617,-0.000806,0.000001,1.000000,0.000097,0.000126,0.000000
3.025000,0.000248,-0.000190,0.499346,0.000960,-0.000734,-0.002533,0.002487,-0.001904,-0.006565,0.000194,0.000254,0.000000,0.000187,0.000244,0.000000,-0.000625,-0.000816,0.000001,1.000000,0.000097,0.000127,0.000000
3.030000,0.000253,-0.000193,0.499333,0.000972,-0.000744,-0.002566,0.002499,-0.001913,-0.006596,0.000195,0.000255,0.000000,0.000184,0.000240,0.000000,-0.000632,-0.000826,0.000001,1.000000,0.000098,0.000127,0.000000
3.035000,0.000257,-0.000197,0.499320,0.000985,-0.000754,-0.002599,0.002511,-0.001922,-0.006627,0.000196,0.000256,0.000000,0.000181,0.000236,0.000000,-0.000640,-0.000836,0.000001,1.000000,0.000098,0.000128,0.000000
3.040000,0.000262,-0.000201,0.499307,0.000997,-0.000763,-0.002632,0.002522,-0.001930,-0.006657,0.000197,0.000257,0.000000,0.000177,0.000232,0.000000,-0.000647,-0.000845,0.000001,1.000000,0.000098,0.000129,0.000000
3.045000,0.000267,-0.000205,0.499294,0.001010,-0.000773,-0.002665,0.002533,-0.001939,-0.006687,0.000198,0.000258,0.000000,0.000174,0.000228,0.000000,-0.000654,-0.000855,0.000001,1.000000,0.000099,0.000129,0.000000
3.050000,0.000273,-0.000209,0.499281,0.001022,-0.000783,-0.002699,0.002545,-0.001947,-0.006716,0.000199,0.000260,0.000000,0.000171,0.000223,0.000000,-0.000661,-0.000864,0.000001,1.000000,0.000099,0.000130,0.000000
3.055000,0.000278,-0.000213,0.499267,0.001035,-0.000792,-0.002732,0.002555,-0.001956,-0.006745,0.000199,0.000261,0.000000,0.000168,0.000219,0.000000,-0.000668,-0.000873,0.000001,1.000000,0.000100,0.000130,0.000000
3.060000,0.000283,-0.000216,0.499253,0.001048,-0.000802,-0.002766,0.002566,-0.001964,-0.006773,0.000200,0.000262,0.000000,0.000164,0.000215,0.000000,-0.000675,-0.000882,0.000001,1.000000,0.000100,0.000131,0.000000
3.065000,0.000288,-0.000221,0.499239,0.001061,-0.000812,-0.002800,0.002576,-0.001972,-0.006800,0.000201,0.000263,0.000000,0.000161,0.000210,0.000000,-0.000682,-0.000891,0.000001,1.000000,0.000101,0.000131,0.000000
3.070000,0.000293,-0.000225,0.499225,0.001074,-0.000822,-0.002834,0.002587,-0.001980,-0.006827,0.000202,0.000264,0.000000,0.000157,0.000206,0.000000,-0.000689,-0.000900,0.000001,1.000000,0.000101,0.000132,0.000000
3.075000,0.000299,-0.000229,0.499211,0.001087,-0.000832,-0.002868,0.002597,-0.001987,-0.006853,0.000203,0.000265,0.000000,0.000154,0.000201,0.000000,-0.000696,-0.000909,0.000001,1.000000,0.000101,0.000132,0.000000
3.080000,0.000304,-0.000233,0.499197,0.001100,-0.000842,-0.002903,0.002606,-0.001995,-0.006879,0.000203,0.000266,0.000000,0.000150,0.000197,0.000000,-0.000702,-0.000917,0.000001,1.000000,0.000102,0.000133,0.000000
3.085000,0.000310,-0.000237,0.499182,0.001113,-0.000852,-0.002937,0.002616,-0.002002,-0.006904,0.000204,0.000267,0.000000,0.000147,0.000192,0.000000,-0.000709,-0.000926,0.000001,1.000000,0.000102,0.000133,0.000000
3.090000,0.000315,-0.000241,0.499167,0.001126,-0.000862,-0.002972,0.002625,-0.002009,-0.006929,0.000205,0.000268,0.000000,0.000143,0.000187,0.000000,-0.000715,-0.000934,0.000001,1.000000,0.000102,0.000134,0.000000
3.095000,0.000321,-0.000246,0.499152,0.001139,-0.000872,-0.003007,0.002634,-0.002016,-0.006953,0.000206,0.000269,0.000000,0.000140,0.000183,0.000000,-0.000721,-0.000942,0.000001,1.000000,0.000103,0.000134,0.000000
3.100000,0.000327,-0.000250,0.499137,0.001152,-0.000882,-0.003041,0.002643,-0.002023,-0.006976,0.000206,0.000270,0.000000,0.000136,0.000178,0.000000,-0.000727,-0.000950,0.000001,1.000000,0.000103,0.000135,0.000000
3.105000,0.000333,-0.000255,0.499122,0.001165,-0.000892,-0.003076,0.002652,-0.002029,-0.006999,0.000207,0.000270,0.000000,0.000132,0.000173,0.000000,-0.000733,-0.000958,0.000001,1.000000,0.000104,0.000135,0.000000
3.110000,0.000339,-0.000259,0.499106,0.001179,-0.000902,-0.003111,0.002660,-0.002036,-0.007021,0.000208,0.000271,0.000000,0.000129,0.000168,0.000000,-0.000739,-0.000966,0.000001,1.000000,0.000104,0.000136,0.000000
3.115000,0.000344,-0.000264,0.499091,0.001192,-0.000912,-0.003146,0.002668,-0.002042,-0.007042,0.000208,0.000272,0.000000,0.000125,0.000163,0.000000,-0.000745,-0.000974,0.000001,1.000000,0.000104,0.000136,0.000000
3.120000,0.000350,-0.000268,0.499075,0.001205,-0.000923,-0.003182,0.002676,-0.002048,-0.007063,0.000209,0.000273,0.000000,0.000121,0.000158,0.000000,-0.000751,-0.000981,0.000001,1.000000,0.000104,0.000136,0.000000
3.125000,0.000357,-0.000273,0.499059,0.001219,-0.000933,-0.003217,0.002684,-0.002054,-0.007083,0.000210,0.000274,0.000000,0.000118,0.000154,0.000000,-0.000757,-0.000989,0.000001,1.000000,0.000105,0.000137,0.000000
3.130000,0.000363,-0.000278,0.499043,0.001232,-0.000943,-0.003253,0.002691,-0.002059,-0.007103,0.000210,0.000275,0.000000,0.000114,0.000149,0.000000,-0.000762,-0.000996,0.000001,1.000000,0.000105,0.000137,0.000000
3.135000,0.000369,-0.000282,0.499026,0.001246,-0.000953,-0.003288,0.002698,-0.002065,-0.007122,0.000211,0.000275,0.000000,0.000110,0.000144,0.000000,-0.000768,-0.001003,0.000001,1.000000,0.000105,0.000138,0.000000
3.140000,0.000375,-0.000287,0.499010,0.001259,-0.000964,-0.003324,0.002705,-0.002070,-0.007140,0.000211,0.000276,0.000000,0.000106,0.000139,0.000000,-0.000773,-0.001010,0.000001,1.000000,0.000106,0.000138,0.000000
3.145000,0.000381,-0.000292,0.498993,0.001273,-0.000974,-0.003360,0.002712,-0.002075,-0.007157,0.000212,0.000277,0.000000,0.000102,0.000134,0.000000,-0.000778,-0.001017,0.000001,1.000000,0.000106,0.000138,0.000000
3.150000,0.000388,-0.000297,0.498976,0.001286,-0.000985,-0.003395,0.002718,-0.002080,-0.007174,0.000212,0.000277,0.000000,0.000098,0.000128,0.000000,-0.000783,-0.001023,0.000001,1.000000,0.000106,0.000139,0.000000
3.155000,0.000394,-0.000302,0.498959,0.001300,-0.000995,-0.003431,0.002724,-0.002085,-0.007191,0.000213,0.000278,0.000000,0.000094,0.000123,0.000000,-0.000788,-0.001030,0.000001,1.000000,0.000106,0.000139,0.000000
3.160000,0.000401,-0.000307,0.498942,0.001314,-0.001005,-0.003467,0.002730,-0.002089,-0.007206,0.000213,0.000279,0.000000,0.000090,0.000118,0.000000,-0.000793,-0.001036,0.000001,1.000000,0.000107,0.000139,0.000000
3.165000,0.000407,-0.000312,0.498925,0.001327,-0.001016,-0.003503,0.002736,-0.002094,-0.007221,0.000214,0.000279,0.000000,0.000086,0.000113,0.000000,-0.000798,-0.001043,0.000001,1.000000,0.000107,0.000140,0.000000
3.170000,0.000414,-0.000317,0.498907,0.001341,-0.001026,-0.003539,0.002741,-0.002098,-0.007235,0.000214,0.000280,0.000000,0.000082,0.000108,0.000000,-0.000803,-0.001049,0.000001,1.000000,0.000107,0.000140,0.000000
3.175000,0.000421,-0.000322,0.498889,0.001355,-0.001037,-0.003576,0.002746,-0.002102,-0.007249,0.000214,0.000280,0.000000,0.000078,0.000102,0.000000,-0.000807,-0.001055,0.000001,1.000000,0.000107,0.000140,0.000000
3.180000,0.000428,-0.000327,0.498871,0.001368,-0.001047,-0.003612,0.002751,-0.002106,-0.007262,0.000215,0.000281,0.000000,0.000074,0.000097,0.000000,-0.000812,-0.001061,0.000001,1.000000,0.000107,0.000140,0.000000
3.185000,0.000435,-0.000333,0.498853,0.001382,-0.001058,-0.003648,0.002756,-0.002109,-0.007274,0.000215,0.000281,0.000000,0.000070,0.000092,0.000000,-0.000816,-0.001066,0.000001,1.000000,0.000108,0.000141,0.000000
3.190000,0.000441,-0.000338,0.498835,0.001396,-0.001068,-0.003685,0.002760,-0.002113,-0.007286,0.000216,0.000282,0.000000,0.000066,0.000086,0.000000,-0.000821,-0.001072,0.000001,1.000000,0.000108,0.000141,0.000000
3.195000,0.000448,-0.000343,0.498816,0.001410,-0.001079,-0.003721,0.002764,-0.002116,-0.007296,0.000216,0.000282,0.000000,0.000062,0.000081,0.000000,-0.000825,-0.001078,0.000001,1.000000,0.000108,0.000141,0.000000
3.200000,0.000456,-0.000349,0.498798,0.001424,-0.001090,-0.003758,0.002768,-0.002119,-0.007307,0.000216,0.000282,0.000000,0.000058,0.000076,0.000000,-0.000829,-0.001083,0.000001,1.000000,0.000108,0.000141,0.000000
3.205000,0.000463,-0.000354,0.498779,0.001437,-0.001100,-0.003794,0.002772,-0.002121,-0.007316,0.000216,0.000283,0.000000,0.000054,0.000070,0.000000,-0.000833,-0.001088,0.000001,1.000000,0.000108,0.000141,0.000000
3.210000,0.000470,-0.000360,0.498760,0.001451,-0.001111,-0.003831,0.002775,-0.002124,-0.007325,0.000217,0.000283,0.000000,0.000050,0.000065,0.000000,-0.000837,-0.001093,0.000001,1.000000,0.000108,0.000142,0.000000
3.215000,0.000477,-0.000365,0.498740,0.001465,-0.001121,-0.003867,0.002778,-0.002126,-0.007333,0.000217,0.000283,0.000000,0.000045,0.000059,0.000001,-0.000840,-0.001098,0.000001,1.000000,0.000108,0.000142,0.000000
3.220000,0.000485,-0.000371,0.498721,0.001479,-0.001132,-0.003904,0.002781,-0.002128,-0.007340,0.000217,0.000284,0.000000,0.000041,0.000054,0.000001,-0.000844,-0.001103,0.000001,1.000000,0.000109,0.000142,0.000000
3.225000,0.000492,-0.000377,0.498701,0.001493,-0.001143,-0.003941,0.002783,-0.002130,-0.007347,0.000217,0.000284,0.000000,0.000037,0.000048,0.000001,-0.000847,-0.001107,0.000001,1.000000,0.000109,0.000142,0.000000
3.230000,0.000500,-0.000382,0.498682,0.001507,-0.001153,-0.003978,0.002786,-0.002132,-0.007353,0.000217,0.000284,0.000000,0.000033,0.000043,0.000001,-0.000851,-0.001112,0.000001,1.000000,0.000109,0.000142,0.000000
3.235000,0.000507,-0.000388,0.498662,0.001521,-0.001164,-0.004014,0.002788,-0.002133,-0.007358,0.000218,0.000284,0.000000,0.000028,0.000037,0.000001,-0.000854,-0.001116,0.000001,1.000000,0.000109,0.000142,0.000000
3.240000,0.000515,-0.000394,0.498641,0.001535,-0.001175,-0.004051,0.002789,-0.002135,-0.007362,0.000218,0.000285,0.000000,0.000024,0.000032,0.000001,-0.000857,-0.001120,0.000001,1.000000,0.000109,0.000142,0.000000
3.245000,0.000522,-0.000400,0.498621,0.001549,-0.001185,-0.004088,0.002791,-0.002136,-0.007366,0.000218,0.000285,0.000000,0.000020,0.000026,0.000001,-0.000860,-0.001124,0.000001,1.000000,0.000109,0.000142,0.000000
3.250000,0.000530,-0.000406,0.498600,0.001563,-0.001196,-0.004125,0.002792,-0.002137,-0.007369,0.000218,0.000285,0.000000,0.000016,0.000020,0.000001,-0.000863,-0.001128,0.000001,1.000000,0.000109,0.000142,0.000000
3.255000,0.000538,-0.000412,0.498580,0.001577,-0.001207,-0.004162,0.002793,-0.002137,-0.007371,0.000218,0.000285,0.000000,0.000011,0.000015,0.000001,-0.000866,-0.001132,0.000001,1.000000,0.000109,0.000142,0.000000
3.260000,0.000546,-0.000418,0.498559,0.001591,-0.001217,-0.004199,0.002793,-0.002138,-0.007373,0.000218,0.000285,0.000000,0.000007,0.000009,0.000001,-0.000869,-0.001135,0.000001,1.000000,0.000109,0.000142,0.000000
3.265000,0.000554,-0.000424,0.498538,0.001605,-0.001228,-0.004235,0.002794,-0.002138,-0.007374,0.000218,0.000285,0.000000,0.000003,0.000003,0.000001,-0.000872,-0.001139,0.000001,1.000000,0.000109,0.000142,0.000000
3.270000,0.000562,-0.000430,0.498517,0.001619,-0.001239,-0.004272,0.002794,-0.002138,-0.007374,0.000218,0.000285,0.000000,-0.000002,-0.000002,0.000001,-0.000874,-0.001142,0.000001,1.000000,0.000109,0.000142,0.000000
3.275000,0.000570,-0.000436,0.498495,0.001633,-0.001249,-0.004309,0.002793,-0.002138,-0.007373,0.000218,0.000285,0.000000,-0.000006,-0.000008,0.000001,-0.000877,-0.001145,0.000001,1.000000,0.000109,0.000142,0.000000
3.280000,0.000578,-0.000443,0.498473,0.001647,-0.001260,-0.004346,0.002793,-0.002137,-0.007372,0.000218,0.000285,0.000000,-0.000011,-0.000014,0.000001,-0.000879,-0.001148,0.000001,1.000000,0.000109,0.000142,0.000000
3.285000,0.000587,-0.000449,0.498452,0.001660,-0.001271,-0.004383,0.002792,-0.002137,-0.007369,0.000218,0.000285,0.000000,-0.000015,-0.000020,0.000001,-0.000881,-0.001151,0.000001,1.000000,0.000109,0.000142,0.000000
3.290000,0.000595,-0.000455,0.498430,0.001674,-0.001282,-0.004420,0.002791,-0.002136,-0.007366,0.000218,0.000285,0.000000,-0.000019,-0.000025,0.000001,-0.000883,-0.001154,0.000001,1.000000,0.000109,0.000142,0.000000
3.295000,0.000603,-0.000462,0.498407,0.001688,-0.001292,-0.004457,0.002789,-0.002135,-0.007363,0.000218,0.000285,0.000000,-0.000024,-0.000031,0.000001,-0.000885,-0.001156,0.000001,1.000000,0.000109,0.000142,0.000000
3.300000,0.000612,-0.000468,0.498385,0.001702,-0.001303,-0.004493,0.002788,-0.002134,-0.007358,0.000218,0.000284,0.000000,-0.000028,-0.000037,0.000001,-0.000887,-0.001159,0.000001,1.000000,0.000109,0.000142,0.000000
3.305000,0.000620,-0.000475,0.498362,0.001716,-0.001314,-0.004530,0.002786,-0.002132,-0.007353,0.000218,0.000284,0.000000,-0.000033,-0.000043,0.000001,-0.000889,-0.001161,0.000001,1.000000,0.000109,0.000142,0.000000
3.310000,0.000629,-0.000481,0.498340,0.001730,-0.001324,-0.004567,0.002784,-0.002130,-0.007347,0.000217,0.000284,0.000000,-0.000037,-0.000048,0.000001,-0.000890,-0.001163,0.000001,1.000000,0.000109,0.000142,0.000000
3.315000,0.000638,-0.000488,0.498317,0.001744,-0.001335,-0.004604,0.002781,-0.002128,-0.007341,0.000217,0.000284,0.000000,-0.000042,-0.000054,0.000001,-0.000892,-0.001165,0.000001,1.000000,0.000109,0.000142,0.000000
3.320000,0.000646,-0.000495,0.498294,0.001758,-0.001345,-0.004640,0.002778,-0.002126,-0.007333,0.000217,0.000283,0.000000,-0.000046,-0.000060,0.000001,-0.000893,-0.001167,0.000001,1.000000,0.000108,0.000142,0.000000
3.325000,0.000655,-0.000502,0.498270,0.001772,-0.001356,-0.004677,0.002775,-0.002124,-0.007325,0.000217,0.000283,0.000000,-0.000050,-0.000066,0.000001,-0.000895,-0.001169,0.000001,1.000000,0.000108,0.000142,0.000000
3.330000,0.000664,-0.000508,0.498247,0.001786,-0.001367,-0.004714,0.002772,-0.002121,-0.007316,0.000216,0.000283,0.000000,-0.000055,-0.000072,0.000001,-0.000896,-0.001171,0.000001,1.000000,0.000108,0.000141,0.000000
3.335000,0.000673,-0.000515,0.498223,0.001800,-0.001377,-0.004750,0.002768,-0.002119,-0.007307,0.000216,0.000282,0.000000,-0.000059,-0.000078,0.000001,-0.000897,-0.001172,0.000001,1.000000,0.000108,0.000141,0.000000
3.340000,0.000682,-0.000522,0.498199,0.001813,-0.001388,-0.004787,0.002764,-0.002116,-0.007296,0.000216,0.000282,0.000000,-0.000064,-0.000084,0.000001,-0.000898,-0.001173,0.000001,1.000000,0.000108,0.000141,0.000000
3.345000,0.000691,-0.000529,0.498175,0.001827,-0.001398,-0.004823,0.002760,-0.002112,-0.007285,0.000215,0.000282,0.000000,-0.000068,-0.000089,0.000001,-0.000899,-0.001175,0.000001,1.000000,0.000108,0.000141,0.000000
3.350000,0.000700,-0.000536,0.498151,0.001841,-0.001409,-0.004859,0.002755,-0.002109,-0.007273,0.000215,0.000281,0.000000,-0.000073,-0.000095,0.000001,-0.000900,-0.001176,0.000001,1.000000,0.000108,0.000141,0.000000
3.355000,0.000710,-0.000543,0.498127,0.001855,-0.001420,-0.004896,0.002751,-0.002105,-0.007260,0.000215,0.000281,0.000000,-0.000077,-0.000101,0.000001,-0.000900,-0.001176,0.000001,1.000000,0.000107,0.000140,0.000000
3.360000,0.000719,-0.000550,0.498102,0.001869,-0.001430,-0.004932,0.002746,-0.002101,-0.007247,0.000214,0.000280,0.000000,-0.000082,-0.000107,0.000001,-0.000901,-0.001177,0.000001,1.000000,0.000107,0.000140,0.000000
3.365000,0.000728,-0.000557,0.498077,0.001882,-0.001441,-0.004968,0.002740,-0.002097,-0.007233,0.000214,0.000280,0.000000,-0.000086,-0.000113,0.000001,-0.000901,-0.001178,0.000001,1.000000,0.000107,0.000140,0.000000
3.370000,0.000738,-0.000565,0.498053,0.001896,-0.001451,-0.005004,0.002735,-0.002093,-0.007218,0.000213,0.000279,0.000000,-0.000091,-0.000119,0.000001,-0.000902,-0.001178,0.000001,1.000000,0.000107,0.000139,0.000000
3.375000,0.000747,-0.000572,0.498027,0.001910,-0.001461,-0.005040,0.002729,-0.002088,-0.007202,0.000213,0.000278,0.000000,-0.000095,-0.000125,0.000001,-0.000902,-0.001179,0.000001,1.000000,0.000107,0.000139,0.000000
3.380000,0.000757,-0.000579,0.498002,0.001923,-0.001472,-0.005076,0.002722,-0.002083,-0.007185,0.000213,0.000278,0.000000,-0.000100,-0.000131,0.000001,-0.000902,-0.001179,0.000001,1.000000,0.000106,0.000139,0.000000
3.385000,0.000767,-0.000587,0.497977,0.001937,-0.001482,-0.005112,0.002716,-0.002078,-0.007168,0.000212,0.000277,0.000000,-0.000104,-0.000137,0.000001,-0.000902,-0.001179,0.000001,1.000000,0.000106,0.000139,0.000000
3.390000,0.000776,-0.000594,0.497951,0.001950,-0.001493,-0.005148,0.002709,-0.002073,-0.007150,0.000211,0.000276,0.000000,-0.000109,-0.000142,0.000001,-0.000902,-0.001179,0.000001,1.000000,0.000106,0.000138,0.000000
3.395000,0.000786,-0.000602,0.497925,0.001964,-0.001503,-0.005184,0.002702,-0.002068,-0.007131,0.000211,0.000276,0.000000,-0.000114,-0.000148,0.000001,-0.000902,-0.001179,0.000001,1.000000,0.000105,0.000138,0.000000
3.400000,0.000796,-0.000609,0.497899,0.001977,-0.001513,-0.005219,0.002694,-0.002062,-0.007112,0.000210,0.000275,0.000000,-0.000118,-0.000154,0.000001,-0.000902,-0.001178,0.000001,1.000000,0.000105,0.000137,0.000000
