Time,x,y,z,vx,vy,vz,ax,ay,az,roll,pitch,yaw,vroll,vpitch,vyaw,ar,ap,ay,qw,qx,qy,qz
2.000000,-0.000000,-0.000000,0.500000,-0.000000,-0.000000,-0.000000,0.000000,0.000000,0.000000,0.000000,0.000000,0.000000,-0.000000,0.000000,0.000000,0.000007,-0.000010,0.000000,1.000000,-0.000000,0.000000,0.000000
2.005000,-0.000000,-0.000000,0.500000,-0.000000,-0.000000,-0.000000,-0.000000,-0.000000,-0.000000,0.000000,-0.000000,0.000000,0.000000,-0.000000,0.000000,0.000013,-0.000019,0.000000,1.000000,0.000000,-0.000000,0.000000
2.010000,-0.000000,-0.000000,0.500000,-0.000000,-0.000000,-0.000000,-0.000000,-0.000000,-0.000000,0.000000,-0.000000,0.000000,0.000000,-0.000000,0.000000,0.000026,-0.000038,0.000000,1.000000,0.000000,-0.000000,0.000000
2.015000,-0.000000,-0.000000,0.500000,-0.000000,-0.000000,-0.000000,-0.000000,-0.000000,-0.000000,0.000000,-0.000000,0.000000,0.000000,-0.000000,0.000000,0.000039,-0.000056,0.000000,1.000000,0.000000,-0.000000,0.000000
2.020000,-0.000000,-0.000000,0.500000,-0.000000,-0.000000,-0.000000,-0.000000,-0.000000,-0.000000,0.000000,-0.000000,0.000000,0.000001,-0.000001,0.000000,0.000051,-0.000074,0.000000,1.000000,0.000000,-0.000000,0.000000
2.025000,-0.000000,-0.000000,0.500000,-0.000000,-0.000000,-0.000000,-0.000000,-0.000000,-0.000000,0.000000,-0.000000,0.000000,0.000001,-0.000001,0.000000,0.000063,-0.000092,0.000000,1.000000,0.000000,-0.000000,0.000000
2.030000,-0.000000,-0.000000,0.500000,-0.000000,-0.000000,-0.000000,-0.000000,-0.000000,-0.000001,0.000000,-0.000000,0.000000,0.000001,-0.000002,0.000000,0.000075,-0.000108,0.000000,1.000000,0.000000,-0.000000,0.000000
2.035000,-0.000000,-0.000000,0.500000,-0.000000,-0.000000,-0.000000,-0.000000,-0.000000,-0.000001,0.000000,-0.000000,0.000000,0.000002,-0.000002,0.000000,0.000086,-0.000125,0.000000,1.000000,0.000000,-0.000000,0.000000
2.040000,-0.000000,-0.000000,0.500000,-0.000000,-0.000000,-0.000000,-0.000000,-0.000000,-0.000002,0.000000,-0.000000,0.000000,0.000002,-0.000003,0.000000,0.000098,-0.000141,0.000000,1.000000,0.000000,-0.000000,0.000000
2.045000,-0.000000,-0.000000,0.500000,-0.000000,-0.000000,-0.000000,-0.000001,-0.000000,-0.000002,0.000000,-0.000000,0.000000,0.000003,-0.000004,0.000000,0.000108,-0.000157,0.000000,1.000000,0.000000,-0.000000,0.000000
2.050000,-0.000000,-0.000000,0.500000,-0.000000,-0.000000,-0.000000,-0.000001,-0.000001,-0.000003,0.000000,-0.000000,0.000000,0.000003,-0.000004,0.000000,0.000119,-0.000172,0.000000,1.000000,0.000000,-0.000000,0.000000
2.055000,-0.000000,-0.000000,0.500000,-0.000000,-0.000000,-0.000000,-0.000001,-0.000001,-0.000004,0.000000,-0.000000,0.000000,0.000004,-0.000005,0.000000,0.000129,-0.000186,0.000000,1.000000,0.000000,-0.000000,0.000000
2.060000,-0.000000,-0.000000,0.500000,-0.000000,-0.000000,-0.000000,-0.000001,-0.000001,-0.000006,0.000000,-0.000000,0.000000,0.000004,-0.000006,0.000000,0.000139,-0.000201,0.000000,1.000000,0.000000,-0.000000,0.000000
2.065000,-0.000000,-0.000000,0.500000,-0.000000,-0.000000,-0.000000,-0.000002,-0.000001,-0.000007,0.000000,-0.000000,0.000000,0.000005,-0.000007,0.000000,0.000148,-0.000215,0.000000,1.000000,0.000000,-0.000000,0.000000
2.070000,-0.000000,-0.000000,0.500000,-0.000000,-0.000000,-0.000000,-0.000002,-0.000001,-0.000009,0.000000,-0.000000,0.000000,0.000006,-0.000008,0.000000,0.000158,-0.000228,0.000000,1.000000,0.000000,-0.000000,0.000000
2.075000,-0.000000,-0.000000,0.500000,-0.000000,-0.000000,-0.000000,-0.000002,-0.000002,-0.000011,0.000000,-0.000000,0.000000,0.000007,-0.000010,0.000000,0.000167,-0.000241,0.000000,1.000000,0.000000,-0.000000,0.000000
2.080000,-0.000000,-0.000000,0.500000,-0.000000,-0.000000,-0.000000,-0.000003,-0.000002,-0.000013,0.000000,-0.000000,0.000000,0.000008,-0.000011,0.000000,0.000175,-0.000254,0.000000,1.000000,0.000000,-0.000000,0.000000
2.085000,-0.000000,-0.000000,0.500000,-0.000000,-0.000000,-0.000000,-0.000004,-0.000002,-0.000016,0.000000,-0.000000,0.000000,0.000008,-0.000012,0.000000,0.000184,-0.000266,0.000000,1.000000,0.000000,-0.000000,0.000000
2.090000,-0.000000,-0.000000,0.500000,-0.000000,-0.000000,-0.000000,-0.000004,-0.000003,-0.000019,0.000000,-0.000000,0.000000,0.000009,-0.000014,0.000000,0.000192,-0.000278,0.000000,1.000000,0.000000,-0.000000,0.000000
2.095000,-0.000000,-0.000000,0.500000,-0.000000,-0.000000,-0.000001,-0.000005,-0.000003,-0.000022,0.000000,-0.000000,0.000000,0.000010,-0.000015,0.000000,0.000200,-0.000289,0.000000,1.000000,0.000000,-0.000000,0.000000
2.100000,-0.000000,-0.000000,0.500000,-0.000000,-0.000000,-0.000001,-0.000006,-0.000004,-0.000025,0.000000,-0.000001,0.000000,0.000011,-0.000016,0.000000,0.000208,-0.000300,0.000000,1.000000,0.000000,-0.000000,0.000000
2.105000,-0.000000,-0.000000,0.500000,-0.000000,-0.000000,-0.000001,-0.000006,-0.000004,-0.000029,0.000000,-0.000001,0.000000,0.000012,-0.000018,0.000000,0.000215,-0.000311,0.000000,1.000000,0.000000,-0.000000,0.000000
2.110000,-0.000000,-0.000000,0.500000,-0.000000,-0.000000,-0.000001,-0.000007,-0.000005,-0.000033,0.000001,-0.000001,0.000000,0.000014,-0.000020,0.000000,0.000222,-0.000321,0.000000,1.000000,0.000000,-0.000000,0.000000
2.115000,-0.000000,-0.000000,0.500000,-0.000000,-0.000000,-0.000001,-0.000008,-0.000006,-0.000038,0.000001,-0.000001,0.000000,0.000015,-0.000021,0.000000,0.000229,-0.000331,0.000000,1.000000,0.000000,-0.000000,0.000000
2.120000,-0.000000,-0.000000,0.500000,-0.000000,-0.000000,-0.000001,-0.000009,-0.000007,-0.000042,0.000001,-0.000001,0.000000,0.000016,-0.000023,0.000000,0.000236,-0.000341,0.000000,1.000000,0.000000,-0.000000,0.000000
2.125000,-0.000000,-0.000000,0.500000,-0.000000,-0.000000,-0.000002,-0.000011,-0.000007,-0.000048,0.000001,-0.000001,0.000000,0.000017,-0.000025,0.000000,0.000242,-0.000350,0.000000,1.000000,0.000000,-0.000001,0.000000
2.130000,-0.000000,-0.000000,0.500000,-0.000000,-0.000000,-0.000002,-0.000012,-0.000008,-0.000053,0.000001,-0.000001,0.000000,0.000018,-0.000026,0.000000,0.000248,-0.000359,0.000000,1.000000,0.000000,-0.000001,0.000000
2.135000,-0.000000,-0.000000,0.500000,-0.000000,-0.000000,-0.000002,-0.000013,-0.000009,-0.000059,0.000001,-0.000001,0.000000,0.000019,-0.000028,0.000000,0.000254,-0.000367,0.000000,1.000000,0.000000,-0.000001,0.000000
2.140000,-0.000000,-0.000000,0.500000,-0.000001,-0.000000,-0.000002,-0.000015,-0.000010,-0.000066,0.000001,-0.000001,0.000000,0.000021,-0.000030,0.000000,0.000260,-0.000375,0.000000,1.000000,0.000001,-0.000001,0.000000
2.145000,-0.000000,-0.000000,0.500000,-0.000001,-0.000000,-0.000003,-0.000016,-0.000011,-0.000072,0.000001,-0.000002,0.000000,0.000022,-0.000032,0.000000,0.000265,-0.000383,0.000000,1.000000,0.000001,-0.000001,0.000000
2.150000,-0.000000,-0.000000,0.500000,-0.000001,-0.000000,-0.000003,-0.000018,-0.000012,-0.000080,0.000001,-0.000002,0.000000,0.000023,-0.000034,0.000000,0.000270,-0.000390,0.000000,1.000000,0.000001,-0.000001,0.000000
2.155000,-0.000000,-0.000000,0.500000,-0.000001,-0.000001,-0.000004,-0.000019,-0.000013,-0.000087,0.000001,-0.000002,0.000000,0.000025,-0.000036,0.000000,0.000275,-0.000397,0.000000,1.000000,0.000001,-0.000001,0.000000
2.160000,-0.000000,-0.000000,0.500000,-0.000001,-0.000001,-0.000004,-0.000021,-0.000015,-0.000095,0.000002,-0.000002,0.000000,0.000026,-0.000038,0.000000,0.000280,-0.000404,0.000000,1.000000,0.000001,-0.000001,0.000000
2.165000,-0.000000,-0.000000,0.500000,-0.000001,-0.000001,-0.000004,-0.000023,-0.000016,-0.000104,0.000002,-0.000002,0.000000,0.000028,-0.000040,0.000000,0.000284,-0.000411,0.000000,1.000000,0.000001,-0.000001,0.000000
2.170000,-0.000000,-0.000000,0.500000,-0.000001,-0.000001,-0.000005,-0.000025,-0.000017,-0.000113,0.000002,-0.000003,0.000000,0.000029,-0.000042,0.000000,0.000288,-0.000417,0.000000,1.000000,0.000001,-0.000001,0.000000
2.175000,-0.000000,-0.000000,0.500000,-0.000001,-0.000001,-0.000006,-0.000027,-0.000019,-0.000122,0.000002,-0.000003,0.000000,0.000030,-0.000044,0.000000,0.000292,-0.000423,0.000000,1.000000,0.000001,-0.000001,0.000000
2.180000,-0.000000,-0.000000,0.500000,-0.000001,-0.000001,-0.000006,-0.000030,-0.000020,-0.000132,0.000002,-0.000003,0.000000,0.000032,-0.000046,0.000000,0.000296,-0.000428,0.000000,1.000000,0.000001,-0.000002,0.000000
2.185000,-0.000000,-0.000000,0.500000,-0.000002,-0.000001,-0.000007,-0.000032,-0.000022,-0.000143,0.000002,-0.000003,0.000000,0.000033,-0.000048,0.000000,0.000300,-0.000433,0.000000,1.000000,0.000001,-0.000002,0.000000
2.190000,-0.000000,-0.000000,0.500000,-0.000002,-0.000001,-0.000008,-0.000034,-0.000024,-0.000153,0.000002,-0.000003,0.000000,0.000035,-0.000051,0.000000,0.000303,-0.000438,0.000000,1.000000,0.000001,-0.000002,0.000000
2.195000,-0.000000,-0.000000,0.500000,-0.000002,-0.000001,-0.000008,-0.000037,-0.000025,-0.000165,0.000003,-0.000004,0.000000,0.000036,-0.000053,0.000000,0.000306,-0.000443,0.000000,1.000000,0.000001,-0.000002,0.000000
2.200000,-0.000000,-0.000000,0.500000,-0.000002,-0.000001,-0.000009,-0.000039,-0.000027,-0.000177,0.000003,-0.000004,0.000000,0.000038,-0.000055,0.000000,0.000309,-0.000447,0.000000,1.000000,0.000001,-0.000002,0.000000
2.205000,-0.000000,-0.000000,0.500000,-0.000002,-0.000002,-0.000010,-0.000042,-0.000029,-0.000189,0.000003,-0.000004,0.000000,0.000040,-0.000057,0.000000,0.000312,-0.000451,0.000000,1.000000,0.000001,-0.000002,0.000000
2.210000,-0.000000,-0.000000,0.500000,-0.000003,-0.000002,-0.000011,-0.000045,-0.000031,-0.000202,0.000003,-0.000005,0.000000,0.000041,-0.000059,0.000000,0.000315,-0.000455,0.000000,1.000000,0.000002,-0.000002,0.000000
2.215000,-0.000000,-0.000000,0.499999,-0.000003,-0.000002,-0.000012,-0.000048,-0.000033,-0.000215,0.000003,-0.000005,0.000000,0.000043,-0.000062,0.000000,0.000317,-0.000458,0.000000,1.000000,0.000002,-0.000002,0.000000
2.220000,-0.000000,-0.000000,0.499999,-0.000003,-0.000002,-0.000013,-0.000051,-0.000035,-0.000229,0.000004,-0.000005,0.000000,0.000044,-0.000064,0.000000,0.000319,-0.000462,0.000000,1.000000,0.000002,-0.000003,0.000000
2.225000,-0.000000,-0.000000,0.499999,-0.000003,-0.000002,-0.000015,-0.000054,-0.000038,-0.000243,0.000004,-0.000006,0.000000,0.000046,-0.000066,0.000000,0.000321,-0.000465,0.000000,1.000000,0.000002,-0.000003,0.000000
2.230000,-0.000000,-0.000000,0.499999,-0.000004,-0.000002,-0.000016,-0.000058,-0.000040,-0.000258,0.000004,-0.000006,0.000000,0.000048,-0.000069,0.000000,0.000323,-0.000467,0.000000,1.000000,0.000002,-0.000003,0.000000
2.235000,-0.000000,-0.000000,0.499999,-0.000004,-0.000003,-0.000017,-0.000061,-0.000042,-0.000273,0.000004,-0.000006,0.000000,0.000049,-0.000071,0.000000,0.000325,-0.000470,0.000000,1.000000,0.000002,-0.000003,0.000000
2.240000,-0.000000,-0.000000,0.499999,-0.000004,-0.000003,-0.000019,-0.000065,-0.000045,-0.000289,0.000005,-0.000007,0.000000,0.000051,-0.000073,0.000000,0.000326,-0.000472,0.000000,1.000000,0.000002,-0.000003,0.000000
2.245000,-0.000000,-0.000000,0.499999,-0.000004,-0.000003,-0.000020,-0.000068,-0.000047,-0.000306,0.000005,-0.000007,0.000000,0.000052,-0.000076,0.000000,0.000328,-0.000474,0.000000,1.000000,0.000002,-0.000003,0.000000
2.250000,-0.000000,-0.000000,0.499999,-0.000005,-0.000003,-0.000022,-0.000072,-0.000050,-0.000323,0.000005,-0.000007,0.000000,0.000054,-0.000078,0.000000,0.000329,-0.000475,0.000000,1.000000,0.000003,-0.000004,0.000000
2.255000,-0.000000,-0.000000,0.499999,-0.000005,-0.000004,-0.000023,-0.000076,-0.000053,-0.000340,0.000005,-0.000008,0.000000,0.000056,-0.000080,0.000000,0.000330,-0.000477,0.000000,1.000000,0.000003,-0.000004,0.000000
2.260000,-0.000000,-0.000000,0.499999,-0.000006,-0.000004,-0.000025,-0.000080,-0.000055,-0.000358,0.000006,-0.000008,0.000000,0.000057,-0.000083,0.000000,0.000330,-0.000478,0.000000,1.000000,0.000003,-0.000004,0.000000
2.265000,-0.000000,-0.000000,0.499999,-0.000006,-0.000004,-0.000027,-0.000084,-0.000058,-0.000376,0.000006,-0.000009,0.000000,0.000059,-0.000085,0.000000,0.000331,-0.000479,0.000000,1.000000,0.000003,-0.000004,0.000000
2.270000,-0.000000,-0.000000,0.499998,-0.000006,-0.000004,-0.000029,-0.000088,-0.000061,-0.000395,0.000006,-0.000009,0.000000,0.000061,-0.000088,0.000000,0.000332,-0.000479,0.000000,1.000000,0.000003,-0.000004,0.000000
2.275000,-0.000000,-0.000000,0.499998,-0.000007,-0.000005,-0.000031,-0.000093,-0.000064,-0.000415,0.000007,-0.000009,0.000000,0.000062,-0.000090,0.000000,0.000332,-0.000480,0.000000,1.000000,0.000003,-0.000005,0.000000
2.280000,-0.000000,-0.000000,0.499998,-0.000007,-0.000005,-0.000033,-0.000097,-0.000067,-0.000435,0.000007,-0.000010,0.000000,0.000064,-0.000092,0.000000,0.000332,-0.000480,0.000000,1.000000,0.000003,-0.000005,0.000000
2.285000,-0.000000,-0.000000,0.499998,-0.000008,-0.000005,-0.000035,-0.000102,-0.000070,-0.000456,0.000007,-0.000010,0.000000,0.000066,-0.000095,0.000000,0.000332,-0.000480,0.000000,1.000000,0.000004,-0.000005,0.000000
2.290000,-0.000001,-0.000000,0.499998,-0.000008,-0.000006,-0.000037,-0.000106,-0.000074,-0.000477,0.000008,-0.000011,0.000000,0.000067,-0.000097,0.000000,0.000332,-0.000479,0.000000,1.000000,0.000004,-0.000005,0.000000
2.295000,-0.000001,-0.000000,0.499998,-0.000009,-0.000006,-0.000040,-0.000111,-0.000077,-0.000498,0.000008,-0.000011,0.000000,0.000069,-0.000100,0.000000,0.000331,-0.000479,0.000000,1.000000,0.000004,-0.000006,0.000000
2.300000,-0.000001,-0.000000,0.499997,-0.000009,-0.000007,-0.000042,-0.000116,-0.000080,-0.000520,0.000008,-0.000012,0.000000,0.000071,-0.000102,0.000000,0.000331,-0.000478,0.000000,1.000000,0.000004,-0.000006,0.000000
2.305000,-0.000001,-0.000000,0.499997,-0.000010,-0.000007,-0.000045,-0.000121,-0.000084,-0.000543,0.000009,-0.000012,0.000000,0.000072,-0.000104,0.000000,0.000330,-0.000477,0.000000,1.000000,0.000004,-0.000006,0.000000
2.310000,-0.000001,-0.000000,0.499997,-0.000011,-0.000007,-0.000048,-0.000126,-0.000087,-0.000566,0.000009,-0.000013,0.000000,0.000074,-0.000107,0.000000,0.000330,-0.000476,0.000000,1.000000,0.000004,-0.000006,0.000000
2.315000,-0.000001,-0.000001,0.499997,-0.000011,-0.000008,-0.000051,-0.000132,-0.000091,-0.000590,0.000009,-0.000013,0.000000,0.000076,-0.000109,0.000000,0.000329,-0.000475,0.000000,1.000000,0.000005,-0.000007,0.000000
2.320000,-0.000001,-0.000001,0.499996,-0.000012,-0.000008,-0.000054,-0.000137,-0.000095,-0.000614,0.000010,-0.000014,0.000000,0.000077,-0.000112,0.000000,0.000328,-0.000473,0.000000,1.000000,0.000005,-0.000007,0.000000
2.325000,-0.000001,-0.000001,0.499996,-0.000013,-0.000009,-0.000057,-0.000143,-0.000099,-0.000639,0.000010,-0.000015,0.000000,0.000079,-0.000114,0.000000,0.000326,-0.000472,0.000000,1.000000,0.000005,-0.000007,0.000000
2.330000,-0.000001,-0.000001,0.499996,-0.000013,-0.000009,-0.000060,-0.000148,-0.000103,-0.000664,0.000010,-0.000015,0.000000,0.000080,-0.000116,0.000000,0.000325,-0.000470,0.000000,1.000000,0.000005,-0.000008,0.000000
2.335000,-0.000001,-0.000001,0.499995,-0.000014,-0.000010,-0.000064,-0.000154,-0.000107,-0.000690,0.000011,-0.000016,0.000000,0.000082,-0.000119,0.000000,0.000324,-0.000468,0.000000,1.000000,0.000005,-0.000008,0.000000
2.340000,-0.000001,-0.000001,0.499995,-0.000015,-0.000010,-0.000067,-0.000160,-0.000111,-0.000716,0.000011,-0.000016,0.000000,0.000084,-0.000121,0.000000,0.000322,-0.000466,0.000000,1.000000,0.000006,-0.000008,0.000000
2.345000,-0.000001,-0.000001,0.499995,-0.000016,-0.000011,-0.000071,-0.000166,-0.000115,-0.000743,0.000012,-0.000017,0.000000,0.000085,-0.000123,0.000000,0.000320,-0.000463,0.000000,1.000000,0.000006,-0.000008,0.000000
2.350000,-0.000001,-0.000001,0.499994,-0.000017,-0.000012,-0.000075,-0.000172,-0.000119,-0.000771,0.000012,-0.000018,0.000000,0.000087,-0.000126,0.000000,0.000319,-0.000460,0.000000,1.000000,0.000006,-0.000009,0.000000
2.355000,-0.000001,-0.000001,0.499994,-0.000018,-0.000012,-0.000078,-0.000178,-0.000123,-0.000798,0.000013,-0.000018,0.000000,0.000088,-0.000128,0.000000,0.000317,-0.000458,0.000000,1.000000,0.000006,-0.000009,0.000000
2.360000,-0.000001,-0.000001,0.499994,-0.000018,-0.000013,-0.000082,-0.000185,-0.000128,-0.000827,0.000013,-0.000019,0.000000,0.000090,-0.000130,0.000000,0.000315,-0.000455,0.000000,1.000000,0.000007,-0.000009,0.000000
2.365000,-0.000002,-0.000001,0.499993,-0.000019,-0.000013,-0.000087,-0.000191,-0.000132,-0.000856,0.000013,-0.000019,0.000000,0.000092,-0.000132,0.000000,0.000312,-0.000452,0.000000,1.000000,0.000007,-0.000010,0.000000
2.370000,-0.000002,-0.000001,0.499993,-0.000020,-0.000014,-0.000091,-0.000198,-0.000137,-0.000885,0.000014,-0.000020,0.000000,0.000093,-0.000135,0.000000,0.000310,-0.000448,0.000000,1.000000,0.000007,-0.000010,0.000000
2.375000,-0.000002,-0.000001,0.499992,-0.000021,-0.000015,-0.000096,-0.000204,-0.000141,-0.000915,0.000014,-0.000021,0.000000,0.000095,-0.000137,0.000000,0.000308,-0.000445,0.000000,1.000000,0.000007,-0.000010,0.000000
2.380000,-0.000002,-0.000001,0.499992,-0.000022,-0.000015,-0.000100,-0.000211,-0.000146,-0.000945,0.000015,-0.000022,0.000000,0.000096,-0.000139,0.000000,0.000305,-0.000441,0.000000,1.000000,0.000007,-0.000011,0.000000
2.385000,-0.000002,-0.000001,0.499991,-0.000023,-0.000016,-0.000105,-0.000218,-0.000151,-0.000976,0.000015,-0.000022,0.000000,0.000098,-0.000141,0.000000,0.000303,-0.000437,0.000000,1.000000,0.000008,-0.000011,0.000000
2.390000,-0.000002,-0.000001,0.499991,-0.000025,-0.000017,-0.000110,-0.000225,-0.000156,-0.001007,0.000016,-0.000023,0.000000,0.000099,-0.000144,0.000000,0.000300,-0.000433,0.000000,1.000000,0.000008,-0.000011,0.000000
2.395000,-0.000002,-0.000002,0.499990,-0.000026,-0.000018,-0.000115,-0.000232,-0.000160,-0.001039,0.000016,-0.000024,0.000000,0.000101,-0.000146,0.000000,0.000297,-0.000429,0.000000,1.000000,0.000008,-0.000012,0.000000
2.400000,-0.000002,-0.000002,0.499990,-0.000027,-0.000019,-0.000120,-0.000239,-0.000165,-0.001071,0.000017,-0.000024,0.000000,0.000102,-0.000148,0.000000,0.000294,-0.000425,0.000000,1.000000,0.000008,-0.000012,0.000000
2.405000,-0.000002,-0.000002,0.499989,-0.000028,-0.000019,-0.000126,-0.000246,-0.000171,-0.001104,0.000017,-0.000025,0.000000,0.000104,-0.000150,0.000000,0.000291,-0.000421,0.000000,1.000000,0.000009,-0.000013,0.000000
2.410000,-0.000003,-0.000002,0.499988,-0.000029,-0.000020,-0.000131,-0.000254,-0.000176,-0.001137,0.000018,-0.000026,0.000000,0.000105,-0.000152,0.000000,0.000288,-0.000416,0.000000,1.000000,0.000009,-0.000013,0.000000
2.415000,-0.000003,-0.000002,0.499988,-0.000031,-0.000021,-0.000137,-0.000261,-0.000181,-0.001171,0.000018,-0.000027,0.000000,0.000107,-0.000154,0.000000,0.000285,-0.000412,0.000000,1.000000,0.000009,-0.000013,0.000000
2.420000,-0.000003,-0.000002,0.499987,-0.000032,-0.000022,-0.000143,-0.000269,-0.000186,-0.001205,0.000019,-0.000027,0.000000,0.000108,-0.000156,0.000000,0.000281,-0.000407,0.000000,1.000000,0.000009,-0.000014,0.000000
2.425000,-0.000003,-0.000002,0.499986,-0.000033,-0.000023,-0.000149,-0.000277,-0.000191,-0.001239,0.000020,-0.000028,0.000000,0.000109,-0.000158,0.000000,0.000278,-0.000402,0.000000,1.000000,0.000010,-0.000014,0.000000
2.430000,-0.000003,-0.000002,0.499986,-0.000035,-0.000024,-0.000155,-0.000284,-0.000197,-0.001274,0.000020,-0.000029,0.000000,0.000111,-0.000160,0.000000,0.000275,-0.000397,0.000000,1.000000,0.000010,-0.000015,0.000000
2.435000,-0.000003,-0.000002,0.499985,-0.000036,-0.000025,-0.000162,-0.000292,-0.000202,-0.001310,0.000021,-0.000030,0.000000,0.000112,-0.000162,0.000000,0.000271,-0.000392,0.000000,1.000000,0.000010,-0.000015,0.000000
2.440000,-0.000004,-0.000002,0.499984,-0.000038,-0.000026,-0.000169,-0.000300,-0.000208,-0.001345,0.000021,-0.000031,0.000000,0.000114,-0.000164,0.000000,0.000267,-0.000386,0.000000,1.000000,0.000011,-0.000015,0.000000
2.445000,-0.000004,-0.000003,0.499983,-0.000039,-0.000027,-0.000175,-0.000308,-0.000213,-0.001382,0.000022,-0.000031,0.000000,0.000115,-0.000166,0.000000,0.000264,-0.000381,0.000000,1.000000,0.000011,-0.000016,0.000000
2.450000,-0.000004,-0.000003,0.499982,-0.000041,-0.000028,-0.000182,-0.000317,-0.000219,-0.001418,0.000022,-0.000032,0.000000,0.000116,-0.000168,0.000000,0.000260,-0.000376,0.000000,1.000000,0.000011,-0.000016,0.000000
2.455000,-0.000004,-0.000003,0.499981,-0.000042,-0.000029,-0.000190,-0.000325,-0.000225,-0.001455,0.000023,-0.000033,0.000000,0.000117,-0.000170,0.000000,0.000256,-0.000370,0.000000,1.000000,0.000011,-0.000017,0.000000
2.460000,-0.000004,-0.000003,0.499980,-0.000044,-0.000030,-0.000197,-0.000333,-0.000231,-0.001493,0.000024,-0.000034,0.000000,0.000119,-0.000172,0.000000,0.000252,-0.000364,0.000000,1.000000,0.000012,-0.000017,0.000000
2.465000,-0.000005,-0.000003,0.499979,-0.000046,-0.000032,-0.000205,-0.000342,-0.000236,-0.001531,0.000024,-0.000035,0.000000,0.000120,-0.000173,0.000000,0.000248,-0.000358,0.000000,1.000000,0.000012,-0.000017,0.000000
2.470000,-0.000005,-0.000003,0.499978,-0.000047,-0.000033,-0.000212,-0.000350,-0.000242,-0.001569,0.000025,-0.000036,0.000000,0.000121,-0.000175,0.000000,0.000244,-0.000352,0.000000,1.000000,0.000012,-0.000018,0.000000
2.475000,-0.000005,-0.000004,0.499977,-0.000049,-0.000034,-0.000220,-0.000359,-0.000248,-0.001608,0.000025,-0.000037,0.000000,0.000122,-0.000177,0.000000,0.000240,-0.000346,0.000000,1.000000,0.000013,-0.000018,0.000000
2.480000,-0.000005,-0.000004,0.499976,-0.000051,-0.000035,-0.000228,-0.000368,-0.000254,-0.001647,0.000026,-0.000037,0.000000,0.000124,-0.000179,0.000000,0.000235,-0.000340,0.000000,1.000000,0.000013,-0.000019,0.000000
2.485000,-0.000006,-0.000004,0.499975,-0.000053,-0.000037,-0.000237,-0.000376,-0.000260,-0.001686,0.000027,-0.000038,0.000000,0.000125,-0.000180,0.000000,0.000231,-0.000334,0.000000,1.000000,0.000013,-0.000019,0.000000
2.490000,-0.000006,-0.000004,0.499974,-0.000055,-0.000038,-0.000245,-0.000385,-0.000267,-0.001726,0.000027,-0.000039,0.000000,0.000126,-0.000182,0.000000,0.000227,-0.000328,0.000000,1.000000,0.000014,-0.000020,0.000000
2.495000,-0.000006,-0.000004,0.499972,-0.000057,-0.000039,-0.000254,-0.000394,-0.000273,-0.001766,0.000028,-0.000040,0.000000,0.000127,-0.000184,0.000000,0.000222,-0.000321,0.000000,1.000000,0.000014,-0.000020,0.000000
2.500000,-0.000006,-0.000004,0.499971,-0.000059,-0.000041,-0.000263,-0.000403,-0.000279,-0.001807,0.000028,-0.000041,0.000000,0.000128,-0.000185,0.000000,0.000218,-0.000315,0.000000,1.000000,0.000014,-0.000021,0.000000
2.505000,-0.000007,-0.000005,0.499970,-0.000061,-0.000042,-0.000272,-0.000412,-0.000285,-0.001847,0.000029,-0.000042,0.000000,0.000129,-0.000187,0.000000,0.000213,-0.000308,0.000000,1.000000,0.000015,-0.000021,0.000000
2.510000,-0.000007,-0.000005,0.499968,-0.000063,-0.000043,-0.000281,-0.000422,-0.000292,-0.001889,0.000030,-0.000043,0.000000,0.000130,-0.000188,0.000000,0.000209,-0.000301,0.000000,1.000000,0.000015,-0.000021,0.000000
2.515000,-0.000007,-0.000005,0.499967,-0.000065,-0.000045,-0.000291,-0.000431,-0.000298,-0.001930,0.000030,-0.000044,0.000000,0.000131,-0.000190,0.000000,0.000204,-0.000295,0.000000,1.000000,0.000015,-0.000022,0.000000
2.520000,-0.000008,-0.000005,0.499965,-0.000067,-0.000046,-0.000301,-0.000440,-0.000305,-0.001972,0.000031,-0.000045,0.000000,0.000132,-0.000191,0.000000,0.000199,-0.000288,0.000000,1.000000,0.000016,-0.000022,0.000000
2.525000,-0.000008,-0.000006,0.499964,-0.000069,-0.000048,-0.000311,-0.000450,-0.000311,-0.002014,0.000032,-0.000046,0.000000,0.000133,-0.000193,0.000000,0.000194,-0.000281,0.000000,1.000000,0.000016,-0.000023,0.000000
2.530000,-0.000008,-0.000006,0.499962,-0.000072,-0.000050,-0.000321,-0.000459,-0.000318,-0.002057,0.000032,-0.000047,0.000000,0.000134,-0.000194,0.000000,0.000189,-0.000274,0.000000,1.000000,0.000016,-0.000023,0.000000
2.535000,-0.000009,-0.000006,0.499961,-0.000074,-0.000051,-0.000331,-0.000469,-0.000324,-0.002099,0.000033,-0.000048,0.000000,0.000135,-0.000195,0.000000,0.000185,-0.000267,0.000000,1.000000,0.000017,-0.000024,0.000000
2.540000,-0.000009,-0.000006,0.499959,-0.000076,-0.000053,-0.000342,-0.000478,-0.000331,-0.002142,0.000034,-0.000049,0.000000,0.000136,-0.000197,0.000000,0.000180,-0.000260,0.000000,1.000000,0.000017,-0.000024,0.000000
2.545000,-0.000010,-0.000007,0.499957,-0.000079,-0.000054,-0.000353,-0.000488,-0.000338,-0.002186,0.000034,-0.000050,0.000000,0.000137,-0.000198,0.000000,0.000175,-0.000252,0.000000,1.000000,0.000017,-0.000025,0.000000
2.550000,-0.000010,-0.000007,0.499956,-0.000081,-0.000056,-0.000364,-0.000498,-0.000344,-0.002229,0.000035,-0.000051,0.000000,0.000138,-0.000199,0.000000,0.000170,-0.000245,0.000000,1.000000,0.000018,-0.000025,0.000000
2.555000,-0.000010,-0.000007,0.499954,-0.000084,-0.000058,-0.000375,-0.000508,-0.000351,-0.002273,0.000036,-0.000052,0.000000,0.000139,-0.000200,0.000000,0.000165,-0.000238,0.000000,1.000000,0.000018,-0.000026,0.000000
2.560000,-0.000011,-0.000007,0.499952,-0.000086,-0.000060,-0.000386,-0.000517,-0.000358,-0.002317,0.000036,-0.000053,0.000000,0.000139,-0.000202,0.000000,0.000159,-0.000231,0.000000,1.000000,0.000018,-0.000026,0.000000
2.565000,-0.000011,-0.000008,0.499950,-0.000089,-0.000061,-0.000398,-0.000527,-0.000365,-0.002362,0.000037,-0.000054,0.000000,0.000140,-0.000203,0.000000,0.000154,-0.000223,0.000000,1.000000,0.000019,-0.000027,0.000000
2.570000,-0.000012,-0.000008,0.499948,-0.000092,-0.000063,-0.000410,-0.000537,-0.000372,-0.002406,0.000038,-0.000055,0.000000,0.000141,-0.000204,0.000000,0.000149,-0.000216,0.000000,1.000000,0.000019,-0.000027,0.000000
2.575000,-0.000012,-0.000008,0.499946,-0.000094,-0.000065,-0.000422,-0.000547,-0.000379,-0.002451,0.000039,-0.000056,0.000000,0.000142,-0.000205,0.000000,0.000144,-0.000208,0.000000,1.000000,0.000019,-0.000028,0.000000
2.580000,-0.000013,-0.000009,0.499944,-0.000097,-0.000067,-0.000435,-0.000557,-0.000386,-0.002496,0.000039,-0.000057,0.000000,0.000142,-0.000206,0.000000,0.000139,-0.000200,0.000000,1.000000,0.000020,-0.000028,0.000000
2.585000,-0.000013,-0.000009,0.499941,-0.000100,-0.000069,-0.000447,-0.000567,-0.000393,-0.002542,0.000040,-0.000058,0.000000,0.000143,-0.000207,0.000000,0.000133,-0.000193,0.000000,1.000000,0.000020,-0.000029,0.000000
2.590000,-0.000014,-0.000009,0.499939,-0.000103,-0.000071,-0.000460,-0.000578,-0.000400,-0.002587,0.000041,-0.000059,0.000000,0.000144,-0.000208,0.000000,0.000128,-0.000185,0.000000,1.000000,0.000020,-0.000029,0.000000
2.595000,-0.000014,-0.000010,0.499937,-0.000106,-0.000073,-0.000473,-0.000588,-0.000407,-0.002633,0.000041,-0.000060,0.000000,0.000144,-0.000209,0.000000,0.000123,-0.000177,0.000000,1.000000,0.000021,-0.000030,0.000000
2.600000,-0.000015,-0.000010,0.499934,-0.000109,-0.000075,-0.000486,-0.000598,-0.000414,-0.002679,0.000042,-0.000061,0.000000,0.000145,-0.000210,0.000000,0.000117,-0.000170,0.000000,1.000000,0.000021,-0.000030,0.000000
2.605000,-0.000015,-0.000011,0.499932,-0.000112,-0.000077,-0.000500,-0.000608,-0.000421,-0.002725,0.000043,-0.000062,0.000000,0.000146,-0.000210,0.000000,0.000112,-0.000162,0.000000,1.000000,0.000021,-0.000031,0.000000
2.610000,-0.000016,-0.000011,0.499929,-0.000115,-0.000079,-0.000514,-0.000619,-0.000428,-0.002771,0.000044,-0.000063,0.000000,0.000146,-0.000211,0.000000,0.000106,-0.000154,0.000000,1.000000,0.000022,-0.000032,0.000000
2.615000,-0.000016,-0.000011,0.499927,-0.000118,-0.000081,-0.000527,-0.000629,-0.000435,-0.002818,0.000044,-0.000064,0.000000,0.000147,-0.000212,0.000000,0.000101,-0.000146,0.000000,1.000000,0.000022,-0.000032,0.000000
2.620000,-0.000017,-0.000012,0.499924,-0.000121,-0.000084,-0.000542,-0.000639,-0.000442,-0.002864,0.000045,-0.000065,0.000000,0.000147,-0.000213,0.000000,0.000096,-0.000138,0.000000,1.000000,0.000023,-0.000033,0.000000
2.625000,-0.000018,-0.000012,0.499921,-0.000124,-0.000086,-0.000556,-0.000650,-0.000450,-0.002911,0.000046,-0.000066,0.000000,0.000148,-0.000213,0.000000,0.000090,-0.000130,0.000000,1.000000,0.000023,-0.000033,0.000000
2.630000,-0.000018,-0.000013,0.499919,-0.000127,-0.000088,-0.000571,-0.000660,-0.000457,-0.002958,0.000047,-0.000067,0.000000,0.000148,-0.000214,0.000000,0.000085,-0.000122,0.000000,1.000000,0.000023,-0.000034,0.000000
2.635000,-0.000019,-0.000013,0.499916,-0.000131,-0.000090,-0.000586,-0.000671,-0.000464,-0.003005,0.000047,-0.000068,0.000000,0.000148,-0.000215,0.000000,0.000079,-0.000114,0.000000,1.000000,0.000024,-0.000034,0.000000
2.640000,-0.000019,-0.000013,0.499913,-0.000134,-0.000093,-0.000601,-0.000681,-0.000471,-0.003052,0.000048,-0.000069,0.000000,0.000149,-0.000215,0.000000,0.000073,-0.000106,0.000000,1.000000,0.000024,-0.000035,0.000000
2.645000,-0.000020,-0.000014,0.499910,-0.000138,-0.000095,-0.000616,-0.000692,-0.000479,-0.003100,0.000049,-0.000071,0.000000,0.000149,-0.000216,0.000000,0.000068,-0.000098,0.000000,1.000000,0.000024,-0.000035,0.000000
2.650000,-0.000021,-0.000014,0.499907,-0.000141,-0.000098,-0.000632,-0.000703,-0.000486,-0.003147,0.000050,-0.000072,0.000000,0.000150,-0.000216,0.000000,0.000062,-0.000090,0.000000,1.000000,0.000025,-0.000036,0.000000
2.655000,-0.000022,-0.000015,0.499903,-0.000145,-0.000100,-0.000648,-0.000713,-0.000493,-0.003194,0.000050,-0.000073,0.000000,0.000150,-0.000217,0.000000,0.000057,-0.000082,0.000000,1.000000,0.000025,-0.000036,0.000000
2.660000,-0.000022,-0.000015,0.499900,-0.000148,-0.000103,-0.000664,-0.000724,-0.000501,-0.003242,0.000051,-0.000074,0.000000,0.000150,-0.000217,0.000000,0.000051,-0.000074,0.000000,1.000000,0.000026,-0.000037,0.000000
2.665000,-0.000023,-0.000016,0.499897,-0.000152,-0.000105,-0.000680,-0.000734,-0.000508,-0.003290,0.000052,-0.000075,0.000000,0.000150,-0.000217,0.000000,0.000045,-0.000066,0.000000,1.000000,0.000026,-0.000037,0.000000
2.670000,-0.000024,-0.000016,0.499893,-0.000156,-0.000108,-0.000697,-0.000745,-0.000515,-0.003337,0.000053,-0.000076,0.000000,0.000151,-0.000218,0.000000,0.000040,-0.000057,0.000000,1.000000,0.000026,-0.000038,0.000000
2.675000,-0.000025,-0.000017,0.499890,-0.000159,-0.000110,-0.000713,-0.000756,-0.000523,-0.003385,0.000053,-0.000077,0.000000,0.000151,-0.000218,0.000000,0.000034,-0.000049,0.000000,1.000000,0.000027,-0.000039,0.000000
2.680000,-0.000025,-0.000018,0.499886,-0.000163,-0.000113,-0.000731,-0.000766,-0.000530,-0.003433,0.000054,-0.000078,0.000000,0.000151,-0.000218,0.000000,0.000028,-0.000041,0.000000,1.000000,0.000027,-0.000039,0.000000
2.685000,-0.000026,-0.000018,0.499882,-0.000167,-0.000116,-0.000748,-0.000777,-0.000538,-0.003481,0.000055,-0.000079,0.000000,0.000151,-0.000218,0.000000,0.000023,-0.000033,0.000000,1.000000,0.000027,-0.000040,0.000000
2.690000,-0.000027,-0.000019,0.499879,-0.000171,-0.000118,-0.000765,-0.000788,-0.000545,-0.003529,0.000056,-0.000080,0.000000,0.000151,-0.000218,0.000000,0.000017,-0.000025,0.000000,1.000000,0.000028,-0.000040,0.000000
2.695000,-0.000028,-0.000019,0.499875,-0.000175,-0.000121,-0.000783,-0.000799,-0.000552,-0.003577,0.000056,-0.000081,0.000000,0.000151,-0.000218,0.000000,0.000011,-0.000017,0.000000,1.000000,0.000028,-0.000041,0.000000
2.700000,-0.000029,-0.000020,0.499871,-0.000179,-0.000124,-0.000801,-0.000809,-0.000560,-0.003625,0.000057,-0.000083,0.000000,0.000151,-0.000219,0.000000,0.000006,-0.000008,0.000000,1.000000,0.000029,-0.000041,0.000000
2.705000,-0.000030,-0.000021,0.499867,-0.000183,-0.000127,-0.000819,-0.000820,-0.000567,-0.003673,0.000058,-0.000084,0.000000,0.000151,-0.000219,0.000000,0.000000,-0.000000,0.000000,1.000000,0.000029,-0.000042,0.000000
2.710000,-0.000031,-0.000021,0.499863,-0.000187,-0.000129,-0.000838,-0.000831,-0.000575,-0.003721,0.000059,-0.000085,0.000000,0.000151,-0.000219,0.000000,-0.000006,0.000008,0.000000,1.000000,0.000029,-0.000042,0.000000
2.715000,-0.000032,-0.000022,0.499858,-0.000191,-0.000132,-0.000857,-0.000841,-0.000582,-0.003769,0.000059,-0.000086,0.000000,0.000151,-0.000218,0.000000,-0.000011,0.000016,0.000001,1.000000,0.000030,-0.000043,0.000000
2.720000,-0.000033,-0.000023,0.499854,-0.000195,-0.000135,-0.000876,-0.000852,-0.000590,-0.003817,0.000060,-0.000087,0.000000,0.000151,-0.000218,0.000000,-0.000017,0.000024,0.000001,1.000000,0.000030,-0.000043,0.000000
2.725000,-0.000034,-0.000023,0.499850,-0.000200,-0.000138,-0.000895,-0.000863,-0.000597,-0.003865,0.000061,-0.000088,0.000000,0.000151,-0.000218,0.000000,-0.000023,0.000033,0.000001,1.000000,0.000030,-0.000044,0.000000
2.730000,-0.000035,-0.000024,0.499845,-0.000204,-0.000141,-0.000914,-0.000874,-0.000604,-0.003913,0.000062,-0.000089,0.000000,0.000151,-0.000218,0.000000,-0.000028,0.000041,0.000001,1.000000,0.000031,-0.000045,0.000000
2.735000,-0.000036,-0.000025,0.499840,-0.000208,-0.000144,-0.000934,-0.000884,-0.000612,-0.003960,0.000062,-0.000090,0.000000,0.000151,-0.000218,0.000000,-0.000034,0.000049,0.000001,1.000000,0.000031,-0.000045,0.000000
2.740000,-0.000037,-0.000025,0.499836,-0.000213,-0.000147,-0.000954,-0.000895,-0.000619,-0.004008,0.000063,-0.000091,0.000000,0.000151,-0.000218,0.000000,-0.000040,0.000057,0.000001,1.000000,0.000032,-0.000046,0.000000
2.745000,-0.000038,-0.000026,0.499831,-0.000217,-0.000150,-0.000974,-0.000906,-0.000626,-0.004056,0.000064,-0.000092,0.000000,0.000150,-0.000217,0.000000,-0.000045,0.000065,0.000001,1.000000,0.000032,-0.000046,0.000000
2.750000,-0.000039,-0.000027,0.499826,-0.000222,-0.000154,-0.000994,-0.000916,-0.000634,-0.004104,0.000065,-0.000093,0.000000,0.000150,-0.000217,0.000000,-0.000051,0.000073,0.000001,1.000000,0.000032,-0.000047,0.000000
2.755000,-0.000040,-0.000028,0.499821,-0.000227,-0.000157,-0.001015,-0.000927,-0.000641,-0.004151,0.000065,-0.000095,0.000000,0.000150,-0.000217,0.000000,-0.000056,0.000082,0.000001,1.000000,0.000033,-0.000047,0.000000
2.760000,-0.000041,-0.000028,0.499816,-0.000231,-0.000160,-0.001036,-0.000937,-0.000649,-0.004199,0.000066,-0.000096,0.000000,0.000150,-0.000216,0.000000,-0.000062,0.000090,0.000001,1.000000,0.000033,-0.000048,0.000000
2.765000,-0.000042,-0.000029,0.499811,-0.000236,-0.000163,-0.001057,-0.000948,-0.000656,-0.004246,0.000067,-0.000097,0.000000,0.000149,-0.000216,0.000000,-0.000068,0.000098,0.000001,1.000000,0.000033,-0.000048,0.000000
2.770000,-0.000043,-0.000030,0.499805,-0.000241,-0.000167,-0.001078,-0.000959,-0.000663,-0.004293,0.000068,-0.000098,0.000000,0.000149,-0.000215,0.000000,-0.000073,0.000106,0.000001,1.000000,0.000034,-0.000049,0.000000
2.775000,-0.000045,-0.000031,0.499800,-0.000246,-0.000170,-0.001100,-0.000969,-0.000670,-0.004341,0.000068,-0.000099,0.000000,0.000148,-0.000215,0.000000,-0.000079,0.000114,0.000001,1.000000,0.000034,-0.000049,0.000000
2.780000,-0.000046,-0.000032,0.499794,-0.000250,-0.000173,-0.001122,-0.000980,-0.000678,-0.004388,0.000069,-0.000100,0.000000,0.000148,-0.000214,0.000000,-0.000084,0.000122,0.000001,1.000000,0.000035,-0.000050,0.000000
2.785000,-0.000047,-0.000033,0.499789,-0.000255,-0.000177,-0.001144,-0.000990,-0.000685,-0.004435,0.000070,-0.000101,0.000000,0.000148,-0.000213,0.000000,-0.000090,0.000130,0.000001,1.000000,0.000035,-0.000050,0.000000
2.790000,-0.000048,-0.000034,0.499783,-0.000260,-0.000180,-0.001166,-0.001000,-0.000692,-0.004481,0.000071,-0.000102,0.000000,0.000147,-0.000213,0.000000,-0.000095,0.000138,0.000001,1.000000,0.000035,-0.000051,0.000000
2.795000,-0.000050,-0.000034,0.499777,-0.000265,-0.000184,-0.001189,-0.001011,-0.000699,-0.004528,0.000071,-0.000103,0.000000,0.000147,-0.000212,0.000000,-0.000101,0.000146,0.000001,1.000000,0.000036,-0.000052,0.000000
2.800000,-0.000051,-0.000035,0.499771,-0.000270,-0.000187,-0.001211,-0.001021,-0.000707,-0.004574,0.000072,-0.000104,0.000000,0.000146,-0.000211,0.000000,-0.000106,0.000154,0.000001,1.000000,0.000036,-0.000052,0.000000
2.805000,-0.000053,-0.000036,0.499765,-0.000276,-0.000191,-0.001234,-0.001032,-0.000714,-0.004621,0.000073,-0.000105,0.000000,0.000146,-0.000210,0.000000,-0.000112,0.000162,0.000001,1.000000,0.000036,-0.000053,0.000000
2.810000,-0.000054,-0.000037,0.499759,-0.000281,-0.000194,-0.001258,-0.001042,-0.000721,-0.004667,0.000074,-0.000106,0.000000,0.000145,-0.000210,0.000000,-0.000117,0.000170,0.000001,1.000000,0.000037,-0.000053,0.000000
2.815000,-0.000055,-0.000038,0.499752,-0.000286,-0.000198,-0.001281,-0.001052,-0.000728,-0.004713,0.000074,-0.000107,0.000000,0.000144,-0.000209,0.000000,-0.000123,0.000178,0.000001,1.000000,0.000037,-0.000054,0.000000
2.820000,-0.000057,-0.000039,0.499746,-0.000291,-0.000202,-0.001305,-0.001062,-0.000735,-0.004758,0.000075,-0.000108,0.000000,0.000144,-0.000208,0.000000,-0.000128,0.000185,0.000001,1.000000,0.000037,-0.000054,0.000000
2.825000,-0.000058,-0.000040,0.499739,-0.000297,-0.000205,-0.001329,-0.001072,-0.000742,-0.004804,0.000076,-0.000109,0.000000,0.000143,-0.000207,0.000000,-0.000134,0.000193,0.000001,1.000000,0.000038,-0.000055,0.000000
2.830000,-0.000060,-0.000041,0.499733,-0.000302,-0.000209,-0.001353,-0.001083,-0.000749,-0.004849,0.000076,-0.000110,0.000000,0.000142,-0.000206,0.000000,-0.000139,0.000201,0.000001,1.000000,0.000038,-0.000055,0.000000
2.835000,-0.000061,-0.000042,0.499726,-0.000307,-0.000213,-0.001377,-0.001093,-0.000756,-0.004894,0.000077,-0.000111,0.000000,0.000142,-0.000205,0.000000,-0.000144,0.000209,0.000001,1.000000,0.000039,-0.000056,0.000000
2.840000,-0.000063,-0.000043,0.499719,-0.000313,-0.000216,-0.001402,-0.001103,-0.000763,-0.004939,0.000078,-0.000112,0.000000,0.000141,-0.000204,0.000000,-0.000150,0.000216,0.000001,1.000000,0.000039,-0.000056,0.000000
2.845000,-0.000064,-0.000045,0.499712,-0.000318,-0.000220,-0.001426,-0.001113,-0.000770,-0.004984,0.000079,-0.000113,0.000000,0.000140,-0.000203,0.000000,-0.000155,0.000224,0.000001,1.000000,0.000039,-0.000057,0.000000
2.850000,-0.000066,-0.000046,0.499704,-0.000324,-0.000224,-0.001451,-0.001123,-0.000777,-0.005028,0.000079,-0.000114,0.000000,0.000139,-0.000202,0.000000,-0.000160,0.000232,0.000001,1.000000,0.000040,-0.000057,0.000000
2.855000,-0.000068,-0.000047,0.499697,-0.000330,-0.000228,-0.001477,-0.001132,-0.000783,-0.005072,0.000080,-0.000115,0.000000,0.000139,-0.000200,0.000000,-0.000165,0.000239,0.000001,1.000000,0.000040,-0.000058,0.000000
2.860000,-0.000069,-0.000048,0.499690,-0.000335,-0.000232,-0.001502,-0.001142,-0.000790,-0.005116,0.000081,-0.000116,0.000000,0.000138,-0.000199,0.000000,-0.000171,0.000247,0.000001,1.000000,0.000040,-0.000058,0.000000
2.865000,-0.000071,-0.000049,0.499682,-0.000341,-0.000236,-0.001528,-0.001152,-0.000797,-0.005160,0.000081,-0.000117,0.000000,0.000137,-0.000198,0.000000,-0.000176,0.000254,0.000001,1.000000,0.000041,-0.000059,0.000000
2.870000,-0.000073,-0.000050,0.499674,-0.000347,-0.000240,-0.001554,-0.001162,-0.000804,-0.005203,0.000082,-0.000118,0.000000,0.000136,-0.000197,0.000000,-0.000181,0.000262,0.000001,1.000000,0.000041,-0.000059,0.000000
2.875000,-0.000074,-0.000051,0.499667,-0.000353,-0.000244,-0.001580,-0.001171,-0.000810,-0.005246,0.000083,-0.000119,0.000000,0.000135,-0.000195,0.000000,-0.000186,0.000269,0.000001,1.000000,0.000041,-0.000060,0.000000
2.880000,-0.000076,-0.000053,0.499659,-0.000359,-0.000248,-0.001606,-0.001181,-0.000817,-0.005289,0.000083,-0.000120,0.000000,0.000134,-0.000194,0.000000,-0.000191,0.000276,0.000001,1.000000,0.000042,-0.000060,0.000000
2.885000,-0.000078,-0.000054,0.499651,-0.000365,-0.000252,-0.001633,-0.001190,-0.000823,-0.005331,0.000084,-0.000121,0.000000,0.000133,-0.000193,0.000000,-0.000196,0.000284,0.000001,1.000000,0.000042,-0.000061,0.000000
2.890000,-0.000080,-0.000055,0.499642,-0.000371,-0.000256,-0.001660,-0.001200,-0.000830,-0.005373,0.000085,-0.000122,0.000000,0.000132,-0.000191,0.000000,-0.000201,0.000291,0.000001,1.000000,0.000042,-0.000061,0.000000
2.895000,-0.000082,-0.000057,0.499634,-0.000377,-0.000260,-0.001687,-0.001209,-0.000836,-0.005415,0.000085,-0.000123,0.000000,0.000131,-0.000190,0.000000,-0.000206,0.000298,0.000001,1.000000,0.000043,-0.000062,0.000000
2.900000,-0.000084,-0.000058,0.499625,-0.000383,-0.000265,-0.001714,-0.001218,-0.000843,-0.005456,0.000086,-0.000124,0.000000,0.000130,-0.000188,0.000000,-0.000211,0.000305,0.000001,1.000000,0.000043,-0.000062,0.000000
2.905000,-0.000086,-0.000059,0.499617,-0.000389,-0.000269,-0.001741,-0.001227,-0.000849,-0.005498,0.000087,-0.000125,0.000000,0.000129,-0.000187,0.000000,-0.000216,0.000312,0.000001,1.000000,0.000043,-0.000063,0.000000
2.910000,-0.000088,-0.000061,0.499608,-0.000395,-0.000273,-0.001769,-0.001236,-0.000855,-0.005538,0.000087,-0.000126,0.000000,0.000128,-0.000185,0.000000,-0.000221,0.000320,0.000001,1.000000,0.000044,-0.000063,0.000000
2.915000,-0.000090,-0.000062,0.499599,-0.000401,-0.000277,-0.001797,-0.001245,-0.000862,-0.005579,0.000088,-0.000127,0.000000,0.000127,-0.000183,0.000000,-0.000226,0.000327,0.000001,1.000000,0.000044,-0.000064,0.000000
2.920000,-0.000092,-0.000063,0.499590,-0.000407,-0.000282,-0.001824,-0.001254,-0.000868,-0.005619,0.000089,-0.000128,0.000000,0.000126,-0.000182,0.000000,-0.000231,0.000334,0.000001,1.000000,0.000044,-0.000064,0.000000
2.925000,-0.000094,-0.000065,0.499581,-0.000414,-0.000286,-0.001853,-0.001263,-0.000874,-0.005659,0.000089,-0.000129,0.000000,0.000125,-0.000180,0.000000,-0.000236,0.000340,0.000001,1.000000,0.000045,-0.000064,0.000000
2.930000,-0.000096,-0.000066,0.499572,-0.000420,-0.000291,-0.001881,-0.001272,-0.000880,-0.005698,0.000090,-0.000130,0.000000,0.000123,-0.000178,0.000000,-0.000240,0.000347,0.000001,1.000000,0.000045,-0.000065,0.000000
2.935000,-0.000098,-0.000068,0.499562,-0.000426,-0.000295,-0.001910,-0.001281,-0.000886,-0.005737,0.000090,-0.000131,0.000000,0.000122,-0.000177,0.000000,-0.000245,0.000354,0.000001,1.000000,0.000045,-0.000065,0.000000
2.940000,-0.000100,-0.000069,0.499552,-0.000433,-0.000299,-0.001938,-0.001289,-0.000892,-0.005775,0.000091,-0.000132,0.000000,0.000121,-0.000175,0.000000,-0.000250,0.000361,0.000001,1.000000,0.000045,-0.000066,0.000000
2.945000,-0.000102,-0.000071,0.499543,-0.000439,-0.000304,-0.001967,-0.001298,-0.000898,-0.005814,0.000092,-0.000132,0.000000,0.000120,-0.000173,0.000000,-0.000254,0.000368,0.000001,1.000000,0.000046,-0.000066,0.000000
2.950000,-0.000104,-0.000072,0.499533,-0.000446,-0.000308,-0.001997,-0.001306,-0.000904,-0.005851,0.000092,-0.000133,0.000000,0.000118,-0.000171,0.000000,-0.000259,0.000374,0.000001,1.000000,0.000046,-0.000067,0.000000
2.955000,-0.000107,-0.000074,0.499523,-0.000452,-0.000313,-0.002026,-0.001315,-0.000910,-0.005889,0.000093,-0.000134,0.000000,0.000117,-0.000169,0.000000,-0.000263,0.000381,0.000001,1.000000,0.000046,-0.000067,0.000000
2.960000,-0.000109,-0.000075,0.499512,-0.000459,-0.000317,-0.002055,-0.001323,-0.000915,-0.005926,0.000093,-0.000135,0.000000,0.000116,-0.000167,0.000000,-0.000268,0.000387,0.000001,1.000000,0.000047,-0.000067,0.000000
2.965000,-0.000111,-0.000077,0.499502,-0.000466,-0.000322,-0.002085,-0.001331,-0.000921,-0.005962,0.000094,-0.000136,0.000000,0.000114,-0.000165,0.000000,-0.000272,0.000394,0.000001,1.000000,0.000047,-0.000068,0.000000
2.970000,-0.000113,-0.000079,0.499492,-0.000472,-0.000327,-0.002115,-0.001339,-0.000926,-0.005998,0.000094,-0.000137,0.000000,0.000113,-0.000163,0.000000,-0.000277,0.000400,0.000001,1.000000,0.000047,-0.000068,0.000000
2.975000,-0.000116,-0.000080,0.499481,-0.000479,-0.000331,-0.002145,-0.001347,-0.000932,-0.006034,0.000095,-0.000137,0.000000,0.000112,-0.000161,0.000000,-0.000281,0.000406,0.000001,1.000000,0.000048,-0.000069,0.000000
2.980000,-0.000118,-0.000082,0.499470,-0.000486,-0.000336,-0.002175,-0.001355,-0.000937,-0.006069,0.000096,-0.000138,0.000000,0.000110,-0.000159,0.000000,-0.000286,0.000413,0.000001,1.000000,0.000048,-0.000069,0.000000
2.985000,-0.000121,-0.000084,0.499459,-0.000492,-0.000341,-0.002206,-0.001363,-0.000943,-0.006104,0.000096,-0.000139,0.000000,0.000109,-0.000157,0.000000,-0.000290,0.000419,0.000001,1.000000,0.000048,-0.000069,0.000000
2.990000,-0.000123,-0.000085,0.499448,-0.000499,-0.000345,-0.002236,-0.001370,-0.000948,-0.006138,0.000097,-0.000140,0.000000,0.000107,-0.000155,0.000000,-0.000294,0.000425,0.000001,1.000000,0.000048,-0.000070,0.000000
2.995000,-0.000126,-0.000087,0.499437,-0.000506,-0.000350,-0.002267,-0.001378,-0.000953,-0.006172,0.000097,-0.000141,0.000000,0.000106,-0.000153,0.000000,-0.000298,0.000431,0.000001,1.000000,0.000049,-0.000070,0.000000
3.000000,-0.000128,-0.000089,0.499425,-0.000513,-0.000355,-0.002298,-0.001385,-0.000958,-0.006205,0.000098,-0.000141,0.000000,0.000104,-0.000151,0.000000,-0.000302,0.000437,0.000001,1.000000,0.000049,-0.000071,0.000000
3.005000,-0.000131,-0.000091,0.499414,-0.000520,-0.000360,-0.002329,-0.001393,-0.000963,-0.006238,0.000098,-0.000142,0.000000,0.000103,-0.000149,0.000000,-0.000307,0.000443,0.000001,1.000000,0.000049,-0.000071,0.000000
3.010000,-0.000133,-0.000092,0.499402,-0.000527,-0.000365,-0.002361,-0.001400,-0.000968,-0.006270,0.000099,-0.000143,0.000000,0.000101,-0.000146,0.000000,-0.000311,0.000449,0.000001,1.000000,0.000049,-0.000071,0.000000
3.015000,-0.000136,-0.000094,0.499390,-0.000534,-0.000369,-0.002392,-0.001407,-0.000973,-0.006302,0.000099,-0.000144,0.000000,0.000100,-0.000144,0.000000,-0.000315,0.000455,0.000001,1.000000,0.000050,-0.000072,0.000000
3.020000,-0.000139,-0.000096,0.499378,-0.000541,-0.000374,-0.002424,-0.001414,-0.000978,-0.006334,0.000100,-0.000144,0.000000,0.000098,-0.000142,0.000000,-0.000319,0.000461,0.000001,1.000000,0.000050,-0.000072,0.000000
3.025000,-0.000142,-0.000098,0.499366,-0.000548,-0.000379,-0.002455,-0.001421,-0.000983,-0.006364,0.000100,-0.000145,0.000000,0.000097,-0.000140,0.000000,-0.000323,0.000466,0.000001,1.000000,0.000050,-0.000072,0.000000
3.030000,-0.000144,-0.000100,0.499354,-0.000555,-0.000384,-0.002487,-0.001428,-0.000988,-0.006395,0.000101,-0.000146,0.000000,0.000095,-0.000137,0.000000,-0.000326,0.000472,0.000001,1.000000,0.000050,-0.000073,0.000000
3.035000,-0.000147,-0.000102,0.499341,-0.000562,-0.000389,-0.002519,-0.001434,-0.000992,-0.006425,0.000101,-0.000146,0.000000,0.000093,-0.000135,0.000000,-0.000330,0.000477,0.000001,1.000000,0.000051,-0.000073,0.000000
3.040000,-0.000150,-0.000104,0.499328,-0.000570,-0.000394,-0.002551,-0.001441,-0.000997,-0.006454,0.000102,-0.000147,0.000000,0.000092,-0.000132,0.000000,-0.000334,0.000483,0.000001,1.000000,0.000051,-0.000073,0.000000
3.045000,-0.000153,-0.000106,0.499316,-0.000577,-0.000399,-0.002584,-0.001447,-0.001001,-0.006483,0.000102,-0.000148,0.000000,0.000090,-0.000130,0.000000,-0.000338,0.000488,0.000001,1.000000,0.000051,-0.000074,0.000000
3.050000,-0.000156,-0.000108,0.499303,-0.000584,-0.000404,-0.002616,-0.001454,-0.001006,-0.006511,0.000103,-0.000148,0.000000,0.000088,-0.000128,0.000000,-0.000341,0.000494,0.000001,1.000000,0.000051,-0.000074,0.000000
3.055000,-0.000159,-0.000110,0.499289,-0.000591,-0.000409,-0.002649,-0.001460,-0.001010,-0.006539,0.000103,-0.000149,0.000000,0.000087,-0.000125,0.000000,-0.000345,0.000499,0.000001,1.000000,0.000052,-0.000074,0.000000
3.060000,-0.000162,-0.000112,0.499276,-0.000599,-0.000414,-0.002682,-0.001466,-0.001014,-0.006566,0.000103,-0.000150,0.000000,0.000085,-0.000123,0.000000,-0.000349,0.000504,0.000001,1.000000,0.000052,-0.000075,0.000000
3.065000,-0.000165,-0.000114,0.499263,-0.000606,-0.000419,-0.002715,-0.001472,-0.001018,-0.006592,0.000104,-0.000150,0.000000,0.000083,-0.000120,0.000000,-0.000352,0.000509,0.000001,1.000000,0.000052,-0.000075,0.000000
3.070000,-0.000168,-0.000116,0.499249,-0.000613,-0.000424,-0.002748,-0.001478,-0.001022,-0.006618,0.000104,-0.000151,0.000000,0.000081,-0.000117,0.000000,-0.000356,0.000514,0.000001,1.000000,0.000052,-0.000075,0.000000
3.075000,-0.000171,-0.000118,0.499235,-0.000621,-0.000430,-0.002781,-0.001483,-0.001026,-0.006644,0.000105,-0.000151,0.000000,0.000079,-0.000115,0.000000,-0.000359,0.000519,0.000001,1.000000,0.000052,-0.000076,0.000000
3.080000,-0.000174,-0.000120,0.499221,-0.000628,-0.000435,-0.002814,-0.001489,-0.001030,-0.006669,0.000105,-0.000152,0.000000,0.000078,-0.000112,0.000000,-0.000363,0.000524,0.000001,1.000000,0.000053,-0.000076,0.000000
3.085000,-0.000177,-0.000122,0.499207,-0.000636,-0.000440,-0.002847,-0.001494,-0.001034,-0.006693,0.000105,-0.000152,0.000000,0.000076,-0.000110,0.000000,-0.000366,0.000529,0.000001,1.000000,0.000053,-0.000076,0.000000
3.090000,-0.000180,-0.000125,0.499193,-0.000643,-0.000445,-0.002881,-0.001500,-0.001037,-0.006717,0.000106,-0.000153,0.000000,0.000074,-0.000107,0.000000,-0.000369,0.000534,0.000001,1.000000,0.000053,-0.000076,0.000000
3.095000,-0.000183,-0.000127,0.499178,-0.000651,-0.000450,-0.002915,-0.001505,-0.001041,-0.006740,0.000106,-0.000153,0.000000,0.000072,-0.000104,0.000000,-0.000372,0.000538,0.000001,1.000000,0.000053,-0.000077,0.000000
3.100000,-0.000187,-0.000129,0.499164,-0.000658,-0.000455,-0.002948,-0.001510,-0.001045,-0.006763,0.000107,-0.000154,0.000000,0.000070,-0.000102,0.000000,-0.000376,0.000543,0.000001,1.000000,0.000053,-0.000077,0.000000
3.105000,-0.000190,-0.000131,0.499149,-0.000666,-0.000461,-0.002982,-0.001515,-0.001048,-0.006785,0.000107,-0.000155,0.000000,0.000068,-0.000099,0.000000,-0.000379,0.000547,0.000001,1.000000,0.000053,-0.000077,0.000000
3.110000,-0.000193,-0.000134,0.499134,-0.000673,-0.000466,-0.003016,-0.001519,-0.001051,-0.006806,0.000107,-0.000155,0.000000,0.000066,-0.000096,0.000000,-0.000382,0.000552,0.000001,1.000000,0.000054,-0.000077,0.000000
3.115000,-0.000197,-0.000136,0.499119,-0.000681,-0.000471,-0.003050,-0.001524,-0.001054,-0.006827,0.000108,-0.000155,0.000000,0.000065,-0.000093,0.000000,-0.000385,0.000556,0.000001,1.000000,0.000054,-0.000078,0.000000
3.120000,-0.000200,-0.000139,0.499103,-0.000689,-0.000476,-0.003084,-0.001529,-0.001058,-0.006847,0.000108,-0.000156,0.000000,0.000063,-0.000091,0.000000,-0.000388,0.000561,0.000001,1.000000,0.000054,-0.000078,0.000000
3.125000,-0.000204,-0.000141,0.499088,-0.000696,-0.000482,-0.003119,-0.001533,-0.001061,-0.006867,0.000108,-0.000156,0.000000,0.000061,-0.000088,0.000000,-0.000391,0.000565,0.000001,1.000000,0.000054,-0.000078,0.000000
3.130000,-0.000207,-0.000143,0.499072,-0.000704,-0.000487,-0.003153,-0.001537,-0.001064,-0.006886,0.000108,-0.000157,0.000000,0.000059,-0.000085,0.000000,-0.000394,0.000569,0.000001,1.000000,0.000054,-0.000078,0.000000
3.135000,-0.000211,-0.000146,0.499056,-0.000712,-0.000492,-0.003188,-0.001541,-0.001066,-0.006904,0.000109,-0.000157,0.000000,0.000057,-0.000082,0.000000,-0.000396,0.000573,0.000001,1.000000,0.000054,-0.000079,0.000000
3.140000,-0.000214,-0.000148,0.499040,-0.000719,-0.000498,-0.003222,-0.001545,-0.001069,-0.006922,0.000109,-0.000158,0.000000,0.000055,-0.000079,0.000000,-0.000399,0.000577,0.000001,1.000000,0.000055,-0.000079,0.000000
3.145000,-0.000218,-0.000151,0.499024,-0.000727,-0.000503,-0.003257,-0.001549,-0.001072,-0.006939,0.000109,-0.000158,0.000000,0.000053,-0.000076,0.000000,-0.000402,0.000581,0.000001,1.000000,0.000055,-0.000079,0.000000
3.150000,-0.000222,-0.000153,0.499008,-0.000735,-0.000508,-0.003292,-0.001553,-0.001074,-0.006955,0.000110,-0.000158,0.000000,0.000051,-0.000073,0.000000,-0.000404,0.000585,0.000001,1.000000,0.000055,-0.000079,0.000000
3.155000,-0.000225,-0.000156,0.498991,-0.000743,-0.000514,-0.003326,-0.001556,-0.001077,-0.006971,0.000110,-0.000159,0.000000,0.000049,-0.000070,0.000000,-0.000407,0.000588,0.000001,1.000000,0.000055,-0.000079,0.000000
3.160000,-0.000229,-0.000158,0.498974,-0.000750,-0.000519,-0.003361,-0.001560,-0.001079,-0.006986,0.000110,-0.000159,0.000000,0.000047,-0.000067,0.000000,-0.000410,0.000592,0.000001,1.000000,0.000055,-0.000080,0.000000
3.165000,-0.000233,-0.000161,0.498957,-0.000758,-0.000525,-0.003396,-0.001563,-0.001081,-0.007000,0.000110,-0.000159,0.000000,0.000045,-0.000065,0.000000,-0.000412,0.000596,0.000001,1.000000,0.000055,-0.000080,0.000000
3.170000,-0.000237,-0.000164,0.498940,-0.000766,-0.000530,-0.003431,-0.001566,-0.001083,-0.007014,0.000111,-0.000160,0.000000,0.000043,-0.000062,0.000000,-0.000415,0.000599,0.000001,1.000000,0.000055,-0.000080,0.000000
3.175000,-0.000240,-0.000166,0.498923,-0.000774,-0.000535,-0.003466,-0.001569,-0.001085,-0.007027,0.000111,-0.000160,0.000000,0.000040,-0.000059,0.000000,-0.000417,0.000603,0.000001,1.000000,0.000055,-0.000080,0.000000
3.180000,-0.000244,-0.000169,0.498906,-0.000782,-0.000541,-0.003502,-0.001572,-0.001087,-0.007040,0.000111,-0.000160,0.000000,0.000038,-0.000055,0.000000,-0.000419,0.000606,0.000001,1.000000,0.000055,-0.000080,0.000000
3.185000,-0.000248,-0.000172,0.498888,-0.000790,-0.000546,-0.003537,-0.001574,-0.001089,-0.007052,0.000111,-0.000161,0.000000,0.000036,-0.000052,0.000000,-0.000421,0.000609,0.000001,1.000000,0.000056,-0.000080,0.000000
3.190000,-0.000252,-0.000174,0.498870,-0.000797,-0.000552,-0.003572,-0.001577,-0.001091,-0.007063,0.000111,-0.000161,0.000000,0.000034,-0.000049,0.000000,-0.000424,0.000612,0.000001,1.000000,0.000056,-0.000080,0.000000
3.195000,-0.000256,-0.000177,0.498852,-0.000805,-0.000557,-0.003607,-0.001579,-0.001093,-0.007073,0.000111,-0.000161,0.000000,0.000032,-0.000046,0.000000,-0.000426,0.000616,0.000001,1.000000,0.000056,-0.000081,0.000000
3.200000,-0.000260,-0.000180,0.498834,-0.000813,-0.000563,-0.003643,-0.001581,-0.001094,-0.007083,0.000112,-0.000161,0.000000,0.000030,-0.000043,0.000000,-0.000428,0.000619,0.000001,1.000000,0.000056,-0.000081,0.000000
3.205000,-0.000264,-0.000183,0.498816,-0.000821,-0.000568,-0.003678,-0.001583,-0.001095,-0.007092,0.000112,-0.000162,0.000000,0.000028,-0.000040,0.000000,-0.000430,0.000621,0.000001,1.000000,0.000056,-0.000081,0.000000
3.210000,-0.000268,-0.000186,0.498798,-0.000829,-0.000574,-0.003714,-0.001585,-0.001097,-0.007101,0.000112,-0.000162,0.000000,0.000026,-0.000037,0.000000,-0.000432,0.000624,0.000001,1.000000,0.000056,-0.000081,0.000000
3.215000,-0.000273,-0.000189,0.498779,-0.000837,-0.000579,-0.003749,-0.001587,-0.001098,-0.007109,0.000112,-0.000162,0.000000,0.000023,-0.000034,0.000001,-0.000434,0.000627,0.000001,1.000000,0.000056,-0.000081,0.000000
3.220000,-0.000277,-0.000192,0.498760,-0.000845,-0.000585,-0.003785,-0.001589,-0.001099,-0.007116,0.000112,-0.000162,0.000000,0.000021,-0.000031,0.000001,-0.000436,0.000630,0.000001,1.000000,0.000056,-0.000081,0.000000
3.225000,-0.000281,-0.000194,0.498741,-0.000853,-0.000590,-0.003820,-0.001590,-0.001100,-0.007122,0.000112,-0.000162,0.000000,0.000019,-0.000028,0.000001,-0.000438,0.000632,0.000001,1.000000,0.000056,-0.000081,0.000000
3.230000,-0.000285,-0.000197,0.498722,-0.000861,-0.000596,-0.003856,-0.001591,-0.001101,-0.007128,0.000112,-0.000162,0.000000,0.000017,-0.000024,0.000001,-0.000439,0.000635,0.000001,1.000000,0.000056,-0.000081,0.000000
3.235000,-0.000290,-0.000200,0.498702,-0.000869,-0.000601,-0.003892,-0.001592,-0.001102,-0.007133,0.000112,-0.000162,0.000000,0.000015,-0.000021,0.000001,-0.000441,0.000637,0.000001,1.000000,0.000056,-0.000081,0.000000
3.240000,-0.000294,-0.000203,0.498683,-0.000877,-0.000607,-0.003927,-0.001593,-0.001102,-0.007137,0.000112,-0.000163,0.000000,0.000012,-0.000018,0.000001,-0.000443,0.000640,0.000001,1.000000,0.000056,-0.000081,0.000000
3.245000,-0.000298,-0.000206,0.498663,-0.000885,-0.000612,-0.003963,-0.001594,-0.001103,-0.007141,0.000113,-0.000163,0.000000,0.000010,-0.000015,0.000001,-0.000444,0.000642,0.000001,1.000000,0.000056,-0.000081,0.000000
3.250000,-0.000303,-0.000210,0.498643,-0.000893,-0.000618,-0.003999,-0.001595,-0.001103,-0.007144,0.000113,-0.000163,0.000000,0.000008,-0.000012,0.000001,-0.000446,0.000644,0.000001,1.000000,0.000056,-0.000081,0.000000
3.255000,-0.000307,-0.000213,0.498623,-0.000901,-0.000623,-0.004034,-0.001595,-0.001104,-0.007146,0.000113,-0.000163,0.000000,0.000006,-0.000008,0.000001,-0.000447,0.000647,0.000001,1.000000,0.000056,-0.000081,0.000000
3.260000,-0.000312,-0.000216,0.498603,-0.000909,-0.000629,-0.004070,-0.001596,-0.001104,-0.007147,0.000113,-0.000163,0.000000,0.000004,-0.000005,0.000001,-0.000449,0.000649,0.000001,1.000000,0.000056,-0.000081,0.000000
3.265000,-0.000316,-0.000219,0.498582,-0.000917,-0.000634,-0.004106,-0.001596,-0.001104,-0.007148,0.000113,-0.000163,0.000000,0.000001,-0.000002,0.000001,-0.000450,0.000651,0.000001,1.000000,0.000056,-0.000081,0.000000
3.270000,-0.000321,-0.000222,0.498562,-0.000925,-0.000640,-0.004142,-0.001596,-0.001104,-0.007148,0.000113,-0.000163,0.000000,-0.000001,0.000001,0.000001,-0.000451,0.000652,0.000001,1.000000,0.000056,-0.000081,0.000000
3.275000,-0.000326,-0.000225,0.498541,-0.000933,-0.000645,-0.004177,-0.001596,-0.001104,-0.007148,0.000113,-0.000163,0.000000,-0.000003,0.000005,0.000001,-0.000453,0.000654,0.000001,1.000000,0.000056,-0.000081,0.000000
3.280000,-0.000330,-0.000229,0.498520,-0.000941,-0.000651,-0.004213,-0.001595,-0.001104,-0.007146,0.000113,-0.000163,0.000000,-0.000005,0.000008,0.000001,-0.000454,0.000656,0.000001,1.000000,0.000056,-0.000081,0.000000
3.285000,-0.000335,-0.000232,0.498499,-0.000949,-0.000656,-0.004249,-0.001595,-0.001103,-0.007144,0.000113,-0.000163,0.000000,-0.000008,0.000011,0.000001,-0.000455,0.000658,0.000001,1.000000,0.000056,-0.000081,0.000000
3.290000,-0.000340,-0.000235,0.498478,-0.000957,-0.000662,-0.004285,-0.001594,-0.001103,-0.007141,0.000113,-0.000163,0.000000,-0.000010,0.000014,0.000001,-0.000456,0.000659,0.000001,1.000000,0.000056,-0.000081,0.000000
3.295000,-0.000345,-0.000238,0.498456,-0.000965,-0.000667,-0.004320,-0.001594,-0.001102,-0.007138,0.000112,-0.000163,0.000000,-0.000012,0.000018,0.000001,-0.000457,0.000661,0.000001,1.000000,0.000056,-0.000081,0.000000
3.300000,-0.000350,-0.000242,0.498434,-0.000972,-0.000673,-0.004356,-0.001593,-0.001102,-0.007133,0.000112,-0.000162,0.000000,-0.000015,0.000021,0.000001,-0.000458,0.000662,0.000001,1.000000,0.000056,-0.000081,0.000000
3.305000,-0.000354,-0.000245,0.498413,-0.000980,-0.000678,-0.004392,-0.001591,-0.001101,-0.007128,0.000112,-0.000162,0.000000,-0.000017,0.000024,0.000001,-0.000459,0.000663,0.000001,1.000000,0.000056,-0.000081,0.000000
3.310000,-0.000359,-0.000249,0.498390,-0.000988,-0.000684,-0.004427,-0.001590,-0.001100,-0.007123,0.000112,-0.000162,0.000000,-0.000019,0.000028,0.000001,-0.000460,0.000665,0.000001,1.000000,0.000056,-0.000081,0.000000
3.315000,-0.000364,-0.000252,0.498368,-0.000996,-0.000689,-0.004463,-0.001589,-0.001099,-0.007116,0.000112,-0.000162,0.000000,-0.000021,0.000031,0.000001,-0.000461,0.000666,0.000001,1.000000,0.000056,-0.000081,0.000000
3.320000,-0.000369,-0.000255,0.498346,-0.001004,-0.000695,-0.004498,-0.001587,-0.001098,-0.007109,0.000112,-0.000162,0.000000,-0.000024,0.000034,0.000001,-0.000461,0.000667,0.000001,1.000000,0.000056,-0.000081,0.000000
3.325000,-0.000374,-0.000259,0.498323,-0.001012,-0.000700,-0.004534,-0.001585,-0.001097,-0.007101,0.000112,-0.000162,0.000000,-0.000026,0.000038,0.000001,-0.000462,0.000668,0.000001,1.000000,0.000056,-0.000081,0.000000
3.330000,-0.000379,-0.000262,0.498301,-0.001020,-0.000706,-0.004569,-0.001583,-0.001096,-0.007093,0.000112,-0.000162,0.000000,-0.000028,0.000041,0.000001,-0.000463,0.000669,0.000001,1.000000,0.000056,-0.000081,0.000000
3.335000,-0.000385,-0.000266,0.498278,-0.001028,-0.000711,-0.004605,-0.001581,-0.001094,-0.007083,0.000112,-0.000161,0.000000,-0.000031,0.000044,0.000001,-0.000463,0.000670,0.000001,1.000000,0.000056,-0.000081,0.000000
3.340000,-0.000390,-0.000270,0.498254,-0.001036,-0.000717,-0.004640,-0.001579,-0.001092,-0.007073,0.000111,-0.000161,0.000000,-0.000033,0.000048,0.000001,-0.000464,0.000670,0.000001,1.000000,0.000056,-0.000081,0.000000
3.345000,-0.000395,-0.000273,0.498231,-0.001044,-0.000722,-0.004676,-0.001577,-0.001091,-0.007062,0.000111,-0.000161,0.000000,-0.000035,0.000051,0.000001,-0.000464,0.000671,0.000001,1.000000,0.000056,-0.000080,0.000000
3.350000,-0.000400,-0.000277,0.498208,-0.001052,-0.000728,-0.004711,-0.001574,-0.001089,-0.007051,0.000111,-0.000161,0.000000,-0.000038,0.000054,0.000001,-0.000465,0.000672,0.000001,1.000000,0.000056,-0.000080,0.000000
3.355000,-0.000405,-0.000280,0.498184,-0.001060,-0.000733,-0.004746,-0.001571,-0.001087,-0.007038,0.000111,-0.000160,0.000000,-0.000040,0.000058,0.000001,-0.000465,0.000672,0.000001,1.000000,0.000055,-0.000080,0.000000
3.360000,-0.000411,-0.000284,0.498160,-0.001067,-0.000738,-0.004781,-0.001568,-0.001085,-0.007025,0.000111,-0.000160,0.000000,-0.000042,0.000061,0.000001,-0.000465,0.000672,0.000001,1.000000,0.000055,-0.000080,0.000000
