Time,x,y,z,vx,vy,vz,ax,ay,az,roll,pitch,yaw,vroll,vpitch,vyaw,ar,ap,ay,qw,qx,qy,qz
2.000000,-0.000000,0.000000,0.500000,-0.000000,0.000000,-0.000000,0.000000,-0.000000,0.000000,0.000000,0.000000,0.000000,0.000000,0.000000,0.000000,-0.000013,-0.000012,0.000000,1.000000,0.000000,0.000000,0.000000
2.005000,-0.000000,0.000000,0.500000,-0.000000,0.000000,-0.000000,-0.000000,0.000000,-0.000000,-0.000000,0.000000,0.000000,-0.000000,-0.000000,0.000000,-0.000025,-0.000024,0.000000,1.000000,-0.000000,-0.000000,0.000000
2.010000,-0.000000,0.000000,0.500000,-0.000000,0.000000,-0.000000,-0.000000,0.000000,-0.000000,-0.000000,0.000000,0.000000,-0.000000,-0.000000,0.000000,-0.000050,-0.000047,0.000000,1.000000,-0.000000,-0.000000,0.000000
2.015000,-0.000000,0.000000,0.500000,-0.000000,0.000000,-0.000000,-0.000000,0.000000,-0.000000,-0.000000,0.000000,0.000000,-0.000001,-0.000001,0.000000,-0.000074,-0.000070,0.000000,1.000000,-0.000000,-0.000000,0.000000
2.020000,-0.000000,0.000000,0.500000,-0.000000,0.000000,-0.000000,-0.000000,0.000000,-0.000000,-0.000000,-0.000000,0.000000,-0.000001,-0.000001,0.000000,-0.000097,-0.000093,0.000000,1.000000,-0.000000,-0.000000,0.000000
2.025000,-0.000000,0.000000,0.500000,-0.000000,0.000000,-0.000000,-0.000000,0.000000,-0.000000,-0.000000,-0.000000,0.000000,-0.000002,-0.000001,0.000000,-0.000120,-0.000114,0.000000,1.000000,-0.000000,-0.000000,0.000000
2.030000,-0.000000,0.000000,0.500000,-0.000000,0.000000,-0.000000,-0.000000,0.000000,-0.000001,-0.000000,-0.000000,0.000000,-0.000002,-0.000002,0.000000,-0.000142,-0.000135,0.000000,1.000000,-0.000000,-0.000000,0.000000
2.035000,-0.000000,0.000000,0.500000,-0.000000,0.000000,-0.000000,-0.000000,0.000000,-0.000001,-0.000000,-0.000000,0.000000,-0.000003,-0.000003,0.000000,-0.000164,-0.000156,0.000000,1.000000,-0.000000,-0.000000,0.000000
2.040000,-0.000000,0.000000,0.500000,-0.000000,0.000000,-0.000000,-0.000000,0.000001,-0.000002,-0.000000,-0.000000,0.000000,-0.000004,-0.000004,0.000000,-0.000185,-0.000176,0.000000,1.000000,-0.000000,-0.000000,0.000000
2.045000,-0.000000,0.000000,0.500000,-0.000000,0.000000,-0.000000,-0.000001,0.000001,-0.000002,-0.000000,-0.000000,0.000000,-0.000005,-0.000005,0.000000,-0.000205,-0.000195,0.000000,1.000000,-0.000000,-0.000000,0.000000
2.050000,-0.000000,0.000000,0.500000,-0.000000,0.000000,-0.000000,-0.000001,0.000001,-0.000003,-0.000000,-0.000000,0.000000,-0.000006,-0.000006,0.000000,-0.000225,-0.000214,0.000000,1.000000,-0.000000,-0.000000,0.000000
2.055000,-0.000000,0.000000,0.500000,-0.000000,0.000000,-0.000000,-0.000001,0.000001,-0.000004,-0.000000,-0.000000,0.000000,-0.000007,-0.000007,0.000000,-0.000245,-0.000233,0.000000,1.000000,-0.000000,-0.000000,0.000000
2.060000,-0.000000,0.000000,0.500000,-0.000000,0.000000,-0.000000,-0.000002,0.000002,-0.000006,-0.000000,-0.000000,0.000000,-0.000008,-0.000008,0.000000,-0.000263,-0.000250,0.000000,1.000000,-0.000000,-0.000000,0.000000
2.065000,-0.000000,0.000000,0.500000,-0.000000,0.000000,-0.000000,-0.000002,0.000002,-0.000007,-0.000000,-0.000000,0.000000,-0.000010,-0.000009,0.000000,-0.000282,-0.000268,0.000000,1.000000,-0.000000,-0.000000,0.000000
2.070000,-0.000000,0.000000,0.500000,-0.000000,0.000000,-0.000000,-0.000003,0.000003,-0.000009,-0.000000,-0.000000,0.000000,-0.000011,-0.000011,0.000000,-0.000299,-0.000284,0.000000,1.000000,-0.000000,-0.000000,0.000000
2.075000,-0.000000,0.000000,0.500000,-0.000000,0.000000,-0.000000,-0.000003,0.000003,-0.000011,-0.000000,-0.000000,0.000000,-0.000013,-0.000012,0.000000,-0.000316,-0.000301,0.000000,1.000000,-0.000000,-0.000000,0.000000
2.080000,-0.000000,0.000000,0.500000,-0.000000,0.000000,-0.000000,-0.000004,0.000004,-0.000013,-0.000000,-0.000000,0.000000,-0.000014,-0.000014,0.000000,-0.000333,-0.000316,0.000000,1.000000,-0.000000,-0.000000,0.000000
2.085000,-0.000000,0.000000,0.500000,-0.000000,0.000000,-0.000000,-0.000004,0.000005,-0.000016,-0.000000,-0.000000,0.000000,-0.000016,-0.000015,0.000000,-0.000349,-0.000332,0.000000,1.000000,-0.000000,-0.000000,0.000000
2.090000,-0.000000,0.000000,0.500000,-0.000000,0.000000,-0.000000,-0.000005,0.000005,-0.000019,-0.000001,-0.000001,0.000000,-0.000018,-0.000017,0.000000,-0.000364,-0.000346,0.000000,1.000000,-0.000000,-0.000000,0.000000
2.095000,-0.000000,0.000000,0.500000,-0.000000,0.000000,-0.000001,-0.000006,0.000006,-0.000022,-0.000001,-0.000001,0.000000,-0.000020,-0.000019,0.000000,-0.000379,-0.000361,0.000000,1.000000,-0.000000,-0.000000,0.000000
2.100000,-0.000000,0.000000,0.500000,-0.000000,0.000000,-0.000001,-0.000007,0.000007,-0.000025,-0.000001,-0.000001,0.000000,-0.000022,-0.000021,0.000000,-0.000394,-0.000374,0.000000,1.000000,-0.000000,-0.000000,0.000000
2.105000,-0.000000,0.000000,0.500000,-0.000000,0.000000,-0.000001,-0.000008,0.000008,-0.000029,-0.000001,-0.000001,0.000000,-0.000024,-0.000022,0.000000,-0.000408,-0.000388,0.000000,1.000000,-0.000000,-0.000000,0.000000
2.110000,-0.000000,0.000000,0.500000,-0.000000,0.000000,-0.000001,-0.000009,0.000010,-0.000033,-0.000001,-0.000001,0.000000,-0.000026,-0.000024,0.000000,-0.000421,-0.000401,0.000000,1.000000,-0.000000,-0.000000,0.000000
2.115000,-0.000000,0.000000,0.500000,-0.000000,0.000000,-0.000001,-0.000010,0.000011,-0.000038,-0.000001,-0.000001,0.000000,-0.000028,-0.000026,0.000000,-0.000434,-0.000413,0.000000,1.000000,-0.000001,-0.000001,0.000000
2.120000,-0.000000,0.000000,0.500000,-0.000000,0.000000,-0.000001,-0.000012,0.000012,-0.000043,-0.000001,-0.000001,0.000000,-0.000030,-0.000029,0.000000,-0.000447,-0.000425,0.000000,1.000000,-0.000001,-0.000001,0.000000
2.125000,-0.000000,0.000000,0.500000,-0.000000,0.000000,-0.000002,-0.000013,0.000014,-0.000048,-0.000001,-0.000001,0.000000,-0.000032,-0.000031,0.000000,-0.000459,-0.000436,0.000000,1.000000,-0.000001,-0.000001,0.000000
2.130000,-0.000000,0.000000,0.500000,-0.000000,0.000001,-0.000002,-0.000015,0.000016,-0.000054,-0.000002,-0.000002,0.000000,-0.000035,-0.000033,0.000000,-0.000471,-0.000447,0.000000,1.000000,-0.000001,-0.000001,0.000000
2.135000,-0.000000,0.000000,0.500000,-0.000001,0.000001,-0.000002,-0.000016,0.000017,-0.000060,-0.000002,-0.000002,0.000000,-0.000037,-0.000035,0.000000,-0.000482,-0.000458,0.000000,1.000000,-0.000001,-0.000001,0.000000
2.140000,-0.000000,0.000000,0.500000,-0.000001,0.000001,-0.000002,-0.000018,0.000019,-0.000066,-0.000002,-0.000002,0.000000,-0.000039,-0.000037,0.000000,-0.000492,-0.000468,0.000000,1.000000,-0.000001,-0.000001,0.000000
2.145000,-0.000000,0.000000,0.500000,-0.000001,0.000001,-0.000003,-0.000020,0.000021,-0.000073,-0.000002,-0.000002,0.000000,-0.000042,-0.000040,0.000000,-0.000503,-0.000478,0.000000,1.000000,-0.000001,-0.000001,0.000000
2.150000,-0.000000,0.000000,0.500000,-0.000001,0.000001,-0.000003,-0.000022,0.000023,-0.000080,-0.000002,-0.000002,0.000000,-0.000044,-0.000042,0.000000,-0.000512,-0.000487,0.000000,1.000000,-0.000001,-0.000001,0.000000
2.155000,-0.000000,0.000000,0.500000,-0.000001,0.000001,-0.000004,-0.000024,0.000026,-0.000088,-0.000003,-0.000002,0.000000,-0.000047,-0.000045,0.000000,-0.000522,-0.000496,0.000000,1.000000,-0.000001,-0.000001,0.000000
2.160000,-0.000000,0.000000,0.500000,-0.000001,0.000001,-0.000004,-0.000027,0.000028,-0.000096,-0.000003,-0.000003,0.000000,-0.000050,-0.000047,0.000000,-0.000531,-0.000504,0.000000,1.000000,-0.000001,-0.000001,0.000000
2.165000,-0.000000,0.000000,0.500000,-0.000001,0.000001,-0.000005,-0.000029,0.000030,-0.000105,-0.000003,-0.000003,0.000000,-0.000052,-0.000050,0.000000,-0.000539,-0.000512,0.000000,1.000000,-0.000002,-0.000001,0.000000
2.170000,-0.000000,0.000000,0.500000,-0.000001,0.000001,-0.000005,-0.000031,0.000033,-0.000114,-0.000003,-0.000003,0.000000,-0.000055,-0.000052,0.000000,-0.000547,-0.000520,0.000000,1.000000,-0.000002,-0.000002,0.000000
2.175000,-0.000000,0.000000,0.500000,-0.000002,0.000002,-0.000006,-0.000034,0.000036,-0.000124,-0.000004,-0.000003,0.000000,-0.000058,-0.000055,0.000000,-0.000555,-0.000527,0.000000,1.000000,-0.000002,-0.000002,0.000000
2.180000,-0.000000,0.000000,0.500000,-0.000002,0.000002,-0.000006,-0.000037,0.000039,-0.000134,-0.000004,-0.000004,0.000000,-0.000061,-0.000058,0.000000,-0.000562,-0.000534,0.000000,1.000000,-0.000002,-0.000002,0.000000
2.185000,-0.000000,0.000000,0.500000,-0.000002,0.000002,-0.000007,-0.000040,0.000042,-0.000144,-0.000004,-0.000004,0.000000,-0.000063,-0.000060,0.000000,-0.000569,-0.000541,0.000000,1.000000,-0.000002,-0.000002,0.000000
2.190000,-0.000000,0.000000,0.500000,-0.000002,0.000002,-0.000008,-0.000043,0.000045,-0.000155,-0.000005,-0.000004,0.000000,-0.000066,-0.000063,0.000000,-0.000575,-0.000547,0.000000,1.000000,-0.000002,-0.000002,0.000000
2.195000,-0.000000,0.000000,0.500000,-0.000002,0.000002,-0.000009,-0.000046,0.000048,-0.000167,-0.000005,-0.000005,0.000000,-0.000069,-0.000066,0.000000,-0.000581,-0.000553,0.000000,1.000000,-0.000002,-0.000002,0.000000
2.200000,-0.000000,0.000000,0.500000,-0.000003,0.000003,-0.000009,-0.000049,0.000052,-0.000178,-0.000005,-0.000005,0.000000,-0.000072,-0.000069,0.000000,-0.000587,-0.000558,0.000000,1.000000,-0.000003,-0.000003,0.000000
2.205000,-0.000000,0.000000,0.500000,-0.000003,0.000003,-0.000010,-0.000053,0.000055,-0.000191,-0.000006,-0.000005,0.000000,-0.000075,-0.000071,0.000000,-0.000592,-0.000563,0.000000,1.000000,-0.000003,-0.000003,0.000000
2.210000,-0.000000,0.000000,0.500000,-0.000003,0.000003,-0.000011,-0.000056,0.000059,-0.000204,-0.000006,-0.000006,0.000000,-0.000078,-0.000074,0.000000,-0.000597,-0.000568,0.000000,1.000000,-0.000003,-0.000003,0.000000
2.215000,-0.000000,0.000000,0.499999,-0.000003,0.000004,-0.000012,-0.000060,0.000063,-0.000217,-0.000006,-0.000006,0.000000,-0.000081,-0.000077,0.000000,-0.000602,-0.000572,0.000000,1.000000,-0.000003,-0.000003,0.000000
2.220000,-0.000000,0.000000,0.499999,-0.000004,0.000004,-0.000014,-0.000064,0.000067,-0.000231,-0.000007,-0.000006,0.000000,-0.000084,-0.000080,0.000000,-0.000606,-0.000576,0.000000,1.000000,-0.000003,-0.000003,0.000000
2.225000,-0.000000,0.000000,0.499999,-0.000004,0.000004,-0.000015,-0.000068,0.000071,-0.000246,-0.000007,-0.000007,0.000000,-0.000087,-0.000083,0.000000,-0.000610,-0.000580,0.000000,1.000000,-0.000004,-0.000003,0.000000
2.230000,-0.000000,0.000000,0.499999,-0.000004,0.000005,-0.000016,-0.000072,0.000076,-0.000261,-0.000008,-0.000007,0.000000,-0.000090,-0.000086,0.000000,-0.000613,-0.000583,0.000000,1.000000,-0.000004,-0.000004,0.000000
2.235000,-0.000000,0.000000,0.499999,-0.000005,0.000005,-0.000017,-0.000076,0.000080,-0.000276,-0.000008,-0.000008,0.000000,-0.000093,-0.000089,0.000000,-0.000616,-0.000586,0.000000,1.000000,-0.000004,-0.000004,0.000000
2.240000,-0.000000,0.000000,0.499999,-0.000005,0.000005,-0.000019,-0.000081,0.000085,-0.000292,-0.000009,-0.000008,0.000000,-0.000096,-0.000092,0.000000,-0.000619,-0.000588,0.000000,1.000000,-0.000004,-0.000004,0.000000
2.245000,-0.000000,0.000000,0.499999,-0.000006,0.000006,-0.000020,-0.000085,0.000090,-0.000309,-0.000009,-0.000009,0.000000,-0.000099,-0.000094,0.000000,-0.000622,-0.000591,0.000000,1.000000,-0.000005,-0.000004,0.000000
2.250000,-0.000000,0.000000,0.499999,-0.000006,0.000006,-0.000022,-0.000090,0.000095,-0.000326,-0.000010,-0.000009,0.000000,-0.000103,-0.000097,0.000000,-0.000624,-0.000593,0.000000,1.000000,-0.000005,-0.000005,0.000000
2.255000,-0.000000,0.000000,0.499999,-0.000006,0.000007,-0.000023,-0.000095,0.000100,-0.000343,-0.000010,-0.000010,0.000000,-0.000106,-0.000100,0.000000,-0.000626,-0.000594,0.000000,1.000000,-0.000005,-0.000005,0.000000
2.260000,-0.000000,0.000000,0.499999,-0.000007,0.000007,-0.000025,-0.000100,0.000105,-0.000362,-0.000011,-0.000010,0.000000,-0.000109,-0.000103,0.000000,-0.000627,-0.000596,0.000000,1.000000,-0.000005,-0.000005,0.000000
2.265000,-0.000000,0.000000,0.499998,-0.000007,0.000008,-0.000027,-0.000105,0.000110,-0.000380,-0.000011,-0.000011,0.000000,-0.000112,-0.000106,0.000000,-0.000628,-0.000597,0.000000,1.000000,-0.000006,-0.000005,0.000000
2.270000,-0.000000,0.000000,0.499998,-0.000008,0.000008,-0.000029,-0.000110,0.000116,-0.000399,-0.000012,-0.000011,0.000000,-0.000115,-0.000109,0.000000,-0.000629,-0.000598,0.000000,1.000000,-0.000006,-0.000006,0.000000
2.275000,-0.000000,0.000001,0.499998,-0.000009,0.000009,-0.000031,-0.000116,0.000122,-0.000419,-0.000012,-0.000012,0.000000,-0.000118,-0.000112,0.000000,-0.000630,-0.000598,0.000000,1.000000,-0.000006,-0.000006,0.000000
2.280000,-0.000001,0.000001,0.499998,-0.000009,0.000010,-0.000033,-0.000121,0.000127,-0.000439,-0.000013,-0.000012,0.000000,-0.000121,-0.000115,0.000000,-0.000630,-0.000599,0.000000,1.000000,-0.000006,-0.000006,0.000000
2.285000,-0.000001,0.000001,0.499998,-0.000010,0.000010,-0.000035,-0.000127,0.000134,-0.000460,-0.000014,-0.000013,0.000000,-0.000125,-0.000118,0.000000,-0.000630,-0.000598,0.000000,1.000000,-0.000007,-0.000006,0.000000
2.290000,-0.000001,0.000001,0.499998,-0.000010,0.000011,-0.000038,-0.000133,0.000140,-0.000482,-0.000014,-0.000014,0.000000,-0.000128,-0.000121,0.000000,-0.000629,-0.000598,0.000000,1.000000,-0.000007,-0.000007,0.000000
2.295000,-0.000001,0.000001,0.499997,-0.000011,0.000012,-0.000040,-0.000139,0.000146,-0.000503,-0.000015,-0.000014,0.000000,-0.000131,-0.000124,0.000000,-0.000629,-0.000598,0.000000,1.000000,-0.000007,-0.000007,0.000000
2.300000,-0.000001,0.000001,0.499997,-0.000012,0.000012,-0.000043,-0.000145,0.000153,-0.000526,-0.000016,-0.000015,0.000000,-0.000134,-0.000127,0.000000,-0.000628,-0.000597,0.000000,1.000000,-0.000008,-0.000007,0.000000
2.305000,-0.000001,0.000001,0.499997,-0.000013,0.000013,-0.000046,-0.000151,0.000159,-0.000549,-0.000016,-0.000015,0.000000,-0.000137,-0.000130,0.000000,-0.000627,-0.000596,0.000000,1.000000,-0.000008,-0.000008,0.000000
2.310000,-0.000001,0.000001,0.499997,-0.000013,0.000014,-0.000048,-0.000158,0.000166,-0.000572,-0.000017,-0.000016,0.000000,-0.000140,-0.000133,0.000000,-0.000625,-0.000594,0.000000,1.000000,-0.000008,-0.000008,0.000000
2.315000,-0.000001,0.000001,0.499997,-0.000014,0.000015,-0.000051,-0.000164,0.000173,-0.000596,-0.000018,-0.000017,0.000000,-0.000143,-0.000136,0.000000,-0.000624,-0.000593,0.000000,1.000000,-0.000009,-0.000008,0.000000
2.320000,-0.000001,0.000001,0.499996,-0.000015,0.000016,-0.000054,-0.000171,0.000180,-0.000621,-0.000018,-0.000017,0.000000,-0.000146,-0.000139,0.000000,-0.000622,-0.000591,0.000000,1.000000,-0.000009,-0.000009,0.000000
2.325000,-0.000001,0.000001,0.499996,-0.000016,0.000017,-0.000057,-0.000178,0.000187,-0.000646,-0.000019,-0.000018,0.000000,-0.000150,-0.000142,0.000000,-0.000619,-0.000589,0.000000,1.000000,-0.000010,-0.000009,0.000000
2.330000,-0.000001,0.000001,0.499996,-0.000017,0.000018,-0.000061,-0.000185,0.000195,-0.000671,-0.000020,-0.000019,0.000000,-0.000153,-0.000145,0.000000,-0.000617,-0.000586,0.000000,1.000000,-0.000010,-0.000009,0.000000
2.335000,-0.000001,0.000001,0.499995,-0.000018,0.000019,-0.000064,-0.000192,0.000202,-0.000697,-0.000021,-0.000020,0.000000,-0.000156,-0.000148,0.000000,-0.000614,-0.000584,0.000000,1.000000,-0.000010,-0.000010,0.000000
2.340000,-0.000001,0.000001,0.499995,-0.000019,0.000020,-0.000068,-0.000200,0.000210,-0.000724,-0.000021,-0.000020,0.000000,-0.000159,-0.000151,0.000000,-0.000611,-0.000581,0.000000,1.000000,-0.000011,-0.000010,0.000000
2.345000,-0.000001,0.000002,0.499995,-0.000020,0.000021,-0.000071,-0.000207,0.000218,-0.000751,-0.000022,-0.000021,0.000000,-0.000162,-0.000154,0.000000,-0.000608,-0.000578,0.000000,1.000000,-0.000011,-0.000011,0.000000
2.350000,-0.000002,0.000002,0.499994,-0.000021,0.000022,-0.000075,-0.000215,0.000226,-0.000779,-0.000023,-0.000022,0.000000,-0.000165,-0.000157,0.000000,-0.000604,-0.000574,0.000000,1.000000,-0.000012,-0.000011,0.000000
2.355000,-0.000002,0.000002,0.499994,-0.000022,0.000023,-0.000079,-0.000222,0.000234,-0.000807,-0.000024,-0.000023,0.000000,-0.000168,-0.000160,0.000000,-0.000601,-0.000571,0.000000,1.000000,-0.000012,-0.000011,0.000000
2.360000,-0.000002,0.000002,0.499994,-0.000023,0.000024,-0.000083,-0.000230,0.000242,-0.000835,-0.000025,-0.000023,0.000000,-0.000171,-0.000162,0.000000,-0.000597,-0.000567,0.000000,1.000000,-0.000012,-0.000012,0.000000
2.365000,-0.000002,0.000002,0.499993,-0.000024,0.000025,-0.000088,-0.000238,0.000251,-0.000864,-0.000026,-0.000024,0.000000,-0.000174,-0.000165,0.000000,-0.000593,-0.000563,0.000000,1.000000,-0.000013,-0.000012,0.000000
2.370000,-0.000002,0.000002,0.499993,-0.000025,0.000027,-0.000092,-0.000246,0.000259,-0.000894,-0.000026,-0.000025,0.000000,-0.000177,-0.000168,0.000000,-0.000588,-0.000559,0.000000,1.000000,-0.000013,-0.000013,0.000000
2.375000,-0.000002,0.000002,0.499992,-0.000027,0.000028,-0.000097,-0.000255,0.000268,-0.000924,-0.000027,-0.000026,0.000000,-0.000180,-0.000171,0.000000,-0.000584,-0.000555,0.000000,1.000000,-0.000014,-0.000013,0.000000
2.380000,-0.000002,0.000002,0.499992,-0.000028,0.000029,-0.000101,-0.000263,0.000277,-0.000955,-0.000028,-0.000027,0.000000,-0.000183,-0.000174,0.000000,-0.000579,-0.000550,0.000000,1.000000,-0.000014,-0.000013,0.000000
2.385000,-0.000002,0.000003,0.499991,-0.000029,0.000031,-0.000106,-0.000272,0.000286,-0.000986,-0.000029,-0.000028,0.000000,-0.000186,-0.000176,0.000000,-0.000574,-0.000546,0.000000,1.000000,-0.000015,-0.000014,0.000000
2.390000,-0.000003,0.000003,0.499991,-0.000031,0.000032,-0.000111,-0.000281,0.000295,-0.001018,-0.000030,-0.000029,0.000000,-0.000188,-0.000179,0.000000,-0.000569,-0.000541,0.000000,1.000000,-0.000015,-0.000014,0.000000
2.395000,-0.000003,0.000003,0.499990,-0.000032,0.000034,-0.000116,-0.000289,0.000304,-0.001050,-0.000031,-0.000030,0.000000,-0.000191,-0.000182,0.000000,-0.000564,-0.000536,0.000000,1.000000,-0.000016,-0.000015,0.000000
2.400000,-0.000003,0.000003,0.499990,-0.000034,0.000035,-0.000122,-0.000298,0.000314,-0.001082,-0.000032,-0.000030,0.000000,-0.000194,-0.000184,0.000000,-0.000558,-0.000530,0.000000,1.000000,-0.000016,-0.000015,0.000000
2.405000,-0.000003,0.000003,0.499989,-0.000035,0.000037,-0.000127,-0.000307,0.000324,-0.001115,-0.000033,-0.000031,0.000000,-0.000197,-0.000187,0.000000,-0.000552,-0.000525,0.000000,1.000000,-0.000016,-0.000016,0.000000
2.410000,-0.000003,0.000003,0.499988,-0.000037,0.000039,-0.000133,-0.000317,0.000333,-0.001149,-0.000034,-0.000032,0.000000,-0.000200,-0.000190,0.000000,-0.000546,-0.000519,0.000000,1.000000,-0.000017,-0.000016,0.000000
2.415000,-0.000003,0.000004,0.499988,-0.000038,0.000040,-0.000139,-0.000326,0.000343,-0.001183,-0.000035,-0.000033,0.000000,-0.000202,-0.000192,0.000000,-0.000540,-0.000514,0.000000,1.000000,-0.000017,-0.000017,0.000000
2.420000,-0.000004,0.000004,0.499987,-0.000040,0.000042,-0.000145,-0.000336,0.000353,-0.001217,-0.000036,-0.000034,0.000000,-0.000205,-0.000195,0.000000,-0.000534,-0.000508,0.000000,1.000000,-0.000018,-0.000017,0.000000
2.425000,-0.000004,0.000004,0.499986,-0.000042,0.000044,-0.000151,-0.000345,0.000363,-0.001252,-0.000037,-0.000035,0.000000,-0.000208,-0.000197,0.000000,-0.000528,-0.000501,0.000000,1.000000,-0.000019,-0.000018,0.000000
2.430000,-0.000004,0.000004,0.499985,-0.000043,0.000046,-0.000157,-0.000355,0.000373,-0.001287,-0.000038,-0.000036,0.000000,-0.000210,-0.000200,0.000000,-0.000521,-0.000495,0.000000,1.000000,-0.000019,-0.000018,0.000000
2.435000,-0.000004,0.000004,0.499985,-0.000045,0.000047,-0.000164,-0.000365,0.000384,-0.001323,-0.000039,-0.000037,0.000000,-0.000213,-0.000202,0.000000,-0.000514,-0.000489,0.000000,1.000000,-0.000020,-0.000019,0.000000
2.440000,-0.000004,0.000005,0.499984,-0.000047,0.000049,-0.000170,-0.000375,0.000394,-0.001359,-0.000040,-0.000038,0.000000,-0.000215,-0.000205,0.000000,-0.000507,-0.000482,0.000000,1.000000,-0.000020,-0.000019,0.000000
2.445000,-0.000005,0.000005,0.499983,-0.000049,0.000051,-0.000177,-0.000385,0.000405,-0.001396,-0.000041,-0.000039,0.000000,-0.000218,-0.000207,0.000000,-0.000500,-0.000475,0.000000,1.000000,-0.000021,-0.000020,0.000000
2.450000,-0.000005,0.000005,0.499982,-0.000051,0.000053,-0.000184,-0.000395,0.000416,-0.001433,-0.000042,-0.000040,0.000000,-0.000220,-0.000209,0.000000,-0.000493,-0.000469,0.000000,1.000000,-0.000021,-0.000020,0.000000
2.455000,-0.000005,0.000006,0.499981,-0.000053,0.000056,-0.000192,-0.000405,0.000427,-0.001470,-0.000043,-0.000041,0.000000,-0.000223,-0.000212,0.000000,-0.000486,-0.000462,0.000000,1.000000,-0.000022,-0.000021,0.000000
2.460000,-0.000006,0.000006,0.499980,-0.000055,0.000058,-0.000199,-0.000416,0.000438,-0.001508,-0.000045,-0.000042,0.000000,-0.000225,-0.000214,0.000000,-0.000478,-0.000454,0.000000,1.000000,-0.000022,-0.000021,0.000000
2.465000,-0.000006,0.000006,0.499979,-0.000057,0.000060,-0.000207,-0.000426,0.000449,-0.001547,-0.000046,-0.000043,0.000000,-0.000228,-0.000216,0.000000,-0.000470,-0.000447,0.000000,1.000000,-0.000023,-0.000022,0.000000
2.470000,-0.000006,0.000006,0.499978,-0.000059,0.000062,-0.000214,-0.000437,0.000460,-0.001585,-0.000047,-0.000045,0.000000,-0.000230,-0.000219,0.000000,-0.000463,-0.000440,0.000000,1.000000,-0.000023,-0.000022,0.000000
2.475000,-0.000006,0.000007,0.499977,-0.000061,0.000065,-0.000222,-0.000448,0.000471,-0.001624,-0.000048,-0.000046,0.000000,-0.000232,-0.000221,0.000000,-0.000455,-0.000432,0.000000,1.000000,-0.000024,-0.000023,0.000000
2.480000,-0.000007,0.000007,0.499976,-0.000064,0.000067,-0.000231,-0.000459,0.000483,-0.001664,-0.000049,-0.000047,0.000000,-0.000234,-0.000223,0.000000,-0.000447,-0.000424,0.000000,1.000000,-0.000025,-0.000023,0.000000
2.485000,-0.000007,0.000007,0.499975,-0.000066,0.000069,-0.000239,-0.000470,0.000494,-0.001704,-0.000050,-0.000048,0.000000,-0.000237,-0.000225,0.000000,-0.000438,-0.000417,0.000000,1.000000,-0.000025,-0.000024,0.000000
2.490000,-0.000007,0.000008,0.499973,-0.000068,0.000072,-0.000248,-0.000481,0.000506,-0.001744,-0.000052,-0.000049,0.000000,-0.000239,-0.000227,0.000000,-0.000430,-0.000409,0.000000,1.000000,-0.000026,-0.000025,0.000000
2.495000,-0.000008,0.000008,0.499972,-0.000071,0.000074,-0.000257,-0.000492,0.000518,-0.001784,-0.000053,-0.000050,0.000000,-0.000241,-0.000229,0.000000,-0.000422,-0.000401,0.000000,1.000000,-0.000026,-0.000025,0.000000
2.500000,-0.000008,0.000008,0.499971,-0.000073,0.000077,-0.000266,-0.000503,0.000529,-0.001825,-0.000054,-0.000051,0.000000,-0.000243,-0.000231,0.000000,-0.000413,-0.000393,0.000000,1.000000,-0.000027,-0.000026,0.000000
2.505000,-0.000008,0.000009,0.499969,-0.000076,0.000080,-0.000275,-0.000515,0.000541,-0.001866,-0.000055,-0.000052,0.000000,-0.000245,-0.000233,0.000000,-0.000404,-0.000384,0.000000,1.000000,-0.000028,-0.000026,0.000000
2.510000,-0.000009,0.000009,0.499968,-0.000078,0.000082,-0.000284,-0.000526,0.000554,-0.001908,-0.000056,-0.000054,0.000000,-0.000247,-0.000235,0.000000,-0.000396,-0.000376,0.000000,1.000000,-0.000028,-0.000027,0.000000
2.515000,-0.000009,0.000010,0.499967,-0.000081,0.000085,-0.000294,-0.000538,0.000566,-0.001950,-0.000058,-0.000055,0.000000,-0.000249,-0.000237,0.000000,-0.000387,-0.000368,0.000000,1.000000,-0.000029,-0.000027,0.000000
2.520000,-0.000010,0.000010,0.499965,-0.000084,0.000088,-0.000304,-0.000549,0.000578,-0.001992,-0.000059,-0.000056,0.000000,-0.000251,-0.000239,0.000000,-0.000378,-0.000359,0.000000,1.000000,-0.000029,-0.000028,0.000000
2.525000,-0.000010,0.000011,0.499964,-0.000087,0.000091,-0.000314,-0.000561,0.000590,-0.002035,-0.000060,-0.000057,0.000000,-0.000253,-0.000240,0.000000,-0.000369,-0.000350,0.000000,1.000000,-0.000030,-0.000029,0.000000
2.530000,-0.000010,0.000011,0.499962,-0.000089,0.000094,-0.000324,-0.000573,0.000603,-0.002078,-0.000061,-0.000058,0.000000,-0.000255,-0.000242,0.000000,-0.000360,-0.000342,0.000000,1.000000,-0.000031,-0.000029,0.000000
2.535000,-0.000011,0.000012,0.499960,-0.000092,0.000097,-0.000335,-0.000585,0.000615,-0.002121,-0.000063,-0.000060,0.000000,-0.000256,-0.000244,0.000000,-0.000350,-0.000333,0.000000,1.000000,-0.000031,-0.000030,0.000000
2.540000,-0.000011,0.000012,0.499959,-0.000095,0.000100,-0.000345,-0.000597,0.000628,-0.002164,-0.000064,-0.000061,0.000000,-0.000258,-0.000245,0.000000,-0.000341,-0.000324,0.000000,1.000000,-0.000032,-0.000030,0.000000
2.545000,-0.000012,0.000013,0.499957,-0.000098,0.000103,-0.000356,-0.000609,0.000641,-0.002208,-0.000065,-0.000062,0.000000,-0.000260,-0.000247,0.000000,-0.000331,-0.000315,0.000000,1.000000,-0.000033,-0.000031,0.000000
2.550000,-0.000012,0.000013,0.499955,-0.000101,0.000107,-0.000367,-0.000621,0.000653,-0.002252,-0.000067,-0.000063,0.000000,-0.000262,-0.000249,0.000000,-0.000322,-0.000306,0.000000,1.000000,-0.000033,-0.000032,0.000000
2.555000,-0.000013,0.000014,0.499953,-0.000104,0.000110,-0.000379,-0.000633,0.000666,-0.002297,-0.000068,-0.000065,0.000000,-0.000263,-0.000250,0.000000,-0.000312,-0.000297,0.000000,1.000000,-0.000034,-0.000032,0.000000
2.560000,-0.000013,0.000014,0.499951,-0.000108,0.000113,-0.000390,-0.000645,0.000679,-0.002341,-0.000069,-0.000066,0.000000,-0.000265,-0.000251,0.000000,-0.000303,-0.000288,0.000000,1.000000,-0.000035,-0.000033,0.000000
2.565000,-0.000014,0.000015,0.499949,-0.000111,0.000117,-0.000402,-0.000658,0.000692,-0.002386,-0.000071,-0.000067,0.000000,-0.000266,-0.000253,0.000000,-0.000293,-0.000278,0.000000,1.000000,-0.000035,-0.000034,0.000000
2.570000,-0.000015,0.000015,0.499947,-0.000114,0.000120,-0.000414,-0.000670,0.000705,-0.002431,-0.000072,-0.000068,0.000000,-0.000268,-0.000254,0.000000,-0.000283,-0.000269,0.000000,1.000000,-0.000036,-0.000034,0.000000
2.575000,-0.000015,0.000016,0.499945,-0.000118,0.000124,-0.000426,-0.000683,0.000718,-0.002476,-0.000073,-0.000070,0.000000,-0.000269,-0.000256,0.000000,-0.000273,-0.000260,0.000000,1.000000,-0.000037,-0.000035,0.000000
2.580000,-0.000016,0.000017,0.499943,-0.000121,0.000127,-0.000439,-0.000695,0.000732,-0.002522,-0.000075,-0.000071,0.000000,-0.000270,-0.000257,0.000000,-0.000263,-0.000250,0.000000,1.000000,-0.000037,-0.000035,0.000000
2.585000,-0.000016,0.000017,0.499941,-0.000125,0.000131,-0.000452,-0.000708,0.000745,-0.002568,-0.000076,-0.000072,0.000000,-0.000272,-0.000258,0.000000,-0.000253,-0.000240,0.000000,1.000000,-0.000038,-0.000036,0.000000
2.590000,-0.000017,0.000018,0.499938,-0.000128,0.000135,-0.000465,-0.000721,0.000758,-0.002614,-0.000077,-0.000073,0.000000,-0.000273,-0.000259,0.000000,-0.000243,-0.000231,0.000000,1.000000,-0.000039,-0.000037,0.000000
2.595000,-0.000018,0.000019,0.499936,-0.000132,0.000139,-0.000478,-0.000733,0.000772,-0.002660,-0.000079,-0.000075,0.000000,-0.000274,-0.000260,0.000000,-0.000233,-0.000221,0.000000,1.000000,-0.000039,-0.000037,0.000000
2.600000,-0.000018,0.000019,0.499934,-0.000135,0.000143,-0.000491,-0.000746,0.000785,-0.002706,-0.000080,-0.000076,0.000000,-0.000275,-0.000261,0.000000,-0.000223,-0.000212,0.000000,1.000000,-0.000040,-0.000038,0.000000
2.605000,-0.000019,0.000020,0.499931,-0.000139,0.000146,-0.000505,-0.000759,0.000799,-0.002753,-0.000081,-0.000077,0.000000,-0.000276,-0.000263,0.000000,-0.000212,-0.000202,0.000000,1.000000,-0.000041,-0.000039,0.000000
2.610000,-0.000020,0.000021,0.499929,-0.000143,0.000150,-0.000519,-0.000772,0.000812,-0.002800,-0.000083,-0.000079,0.000000,-0.000277,-0.000263,0.000000,-0.000202,-0.000192,0.000000,1.000000,-0.000041,-0.000039,0.000000
2.615000,-0.000020,0.000021,0.499926,-0.000147,0.000155,-0.000533,-0.000785,0.000826,-0.002847,-0.000084,-0.000080,0.000000,-0.000278,-0.000264,0.000000,-0.000192,-0.000182,0.000000,1.000000,-0.000042,-0.000040,0.000000
2.620000,-0.000021,0.000022,0.499923,-0.000151,0.000159,-0.000547,-0.000798,0.000839,-0.002894,-0.000086,-0.000081,0.000000,-0.000279,-0.000265,0.000000,-0.000181,-0.000172,0.000000,1.000000,-0.000043,-0.000041,0.000000
2.625000,-0.000022,0.000023,0.499921,-0.000155,0.000163,-0.000562,-0.000811,0.000853,-0.002941,-0.000087,-0.000083,0.000000,-0.000280,-0.000266,0.000000,-0.000171,-0.000162,0.000000,1.000000,-0.000043,-0.000041,0.000000
2.630000,-0.000023,0.000024,0.499918,-0.000159,0.000167,-0.000577,-0.000824,0.000867,-0.002988,-0.000088,-0.000084,0.000000,-0.000281,-0.000267,0.000000,-0.000160,-0.000152,0.000000,1.000000,-0.000044,-0.000042,0.000000
2.635000,-0.000023,0.000025,0.499915,-0.000163,0.000172,-0.000592,-0.000837,0.000881,-0.003036,-0.000090,-0.000085,0.000000,-0.000282,-0.000268,0.000000,-0.000150,-0.000142,0.000000,1.000000,-0.000045,-0.000043,0.000000
2.640000,-0.000024,0.000026,0.499912,-0.000167,0.000176,-0.000607,-0.000850,0.000895,-0.003084,-0.000091,-0.000087,0.000000,-0.000282,-0.000268,0.000000,-0.000139,-0.000132,0.000000,1.000000,-0.000046,-0.000043,0.000000
2.645000,-0.000025,0.000026,0.499909,-0.000172,0.000181,-0.000623,-0.000863,0.000908,-0.003131,-0.000093,-0.000088,0.000000,-0.000283,-0.000269,0.000000,-0.000129,-0.000122,0.000000,1.000000,-0.000046,-0.000044,0.000000
2.650000,-0.000026,0.000027,0.499906,-0.000176,0.000185,-0.000638,-0.000876,0.000922,-0.003179,-0.000094,-0.000089,0.000000,-0.000284,-0.000270,0.000000,-0.000118,-0.000112,0.000000,1.000000,-0.000047,-0.000045,0.000000
2.655000,-0.000027,0.000028,0.499902,-0.000180,0.000190,-0.000654,-0.000890,0.000936,-0.003227,-0.000095,-0.000091,0.000000,-0.000284,-0.000270,0.000000,-0.000107,-0.000102,0.000000,1.000000,-0.000048,-0.000045,0.000000
2.660000,-0.000028,0.000029,0.499899,-0.000185,0.000195,-0.000671,-0.000903,0.000950,-0.003275,-0.000097,-0.000092,0.000000,-0.000285,-0.000271,0.000000,-0.000097,-0.000092,0.000000,1.000000,-0.000048,-0.000046,0.000000
2.665000,-0.000029,0.000030,0.499896,-0.000189,0.000199,-0.000687,-0.000916,0.000964,-0.003324,-0.000098,-0.000093,0.000000,-0.000285,-0.000271,0.000000,-0.000086,-0.000082,0.000000,1.000000,-0.000049,-0.000047,0.000000
2.670000,-0.000030,0.000031,0.499892,-0.000194,0.000204,-0.000704,-0.000930,0.000978,-0.003372,-0.000100,-0.000095,0.000000,-0.000286,-0.000271,0.000000,-0.000075,-0.000072,0.000000,1.000000,-0.000050,-0.000047,0.000000
2.675000,-0.000031,0.000032,0.499889,-0.000199,0.000209,-0.000721,-0.000943,0.000992,-0.003420,-0.000101,-0.000096,0.000000,-0.000286,-0.000272,0.000000,-0.000065,-0.000061,0.000000,1.000000,-0.000051,-0.000048,0.000000
2.680000,-0.000032,0.000033,0.499885,-0.000203,0.000214,-0.000738,-0.000956,0.001006,-0.003468,-0.000103,-0.000098,0.000000,-0.000286,-0.000272,0.000000,-0.000054,-0.000051,0.000000,1.000000,-0.000051,-0.000049,0.000000
2.685000,-0.000033,0.000034,0.499881,-0.000208,0.000219,-0.000756,-0.000970,0.001020,-0.003517,-0.000104,-0.000099,0.000000,-0.000287,-0.000272,0.000000,-0.000043,-0.000041,0.000000,1.000000,-0.000052,-0.000049,0.000000
2.690000,-0.000034,0.000036,0.499877,-0.000213,0.000224,-0.000773,-0.000983,0.001034,-0.003565,-0.000105,-0.000100,0.000000,-0.000287,-0.000272,0.000000,-0.000032,-0.000031,0.000000,1.000000,-0.000053,-0.000050,0.000000
2.695000,-0.000035,0.000037,0.499873,-0.000218,0.000230,-0.000791,-0.000996,0.001048,-0.003614,-0.000107,-0.000102,0.000000,-0.000287,-0.000273,0.000000,-0.000022,-0.000021,0.000000,1.000000,-0.000053,-0.000051,0.000000
2.700000,-0.000036,0.000038,0.499869,-0.000223,0.000235,-0.000809,-0.001010,0.001062,-0.003662,-0.000108,-0.000103,0.000000,-0.000287,-0.000273,0.000000,-0.000011,-0.000010,0.000000,1.000000,-0.000054,-0.000051,0.000000
2.705000,-0.000037,0.000039,0.499865,-0.000228,0.000240,-0.000828,-0.001023,0.001076,-0.003711,-0.000110,-0.000104,0.000000,-0.000287,-0.000273,0.000000,-0.000000,-0.000000,0.000000,1.000000,-0.000055,-0.000052,0.000000
2.710000,-0.000038,0.000040,0.499861,-0.000233,0.000246,-0.000846,-0.001036,0.001090,-0.003759,-0.000111,-0.000106,0.000000,-0.000287,-0.000273,0.000000,0.000011,0.000010,0.000000,1.000000,-0.000056,-0.000053,0.000000
2.715000,-0.000039,0.000042,0.499857,-0.000239,0.000251,-0.000865,-0.001050,0.001105,-0.003808,-0.000113,-0.000107,0.000000,-0.000287,-0.000273,0.000000,0.000021,0.000020,0.000001,1.000000,-0.000056,-0.000054,0.000000
2.720000,-0.000041,0.000043,0.499853,-0.000244,0.000257,-0.000885,-0.001063,0.001119,-0.003856,-0.000114,-0.000108,0.000000,-0.000287,-0.000272,0.000000,0.000032,0.000030,0.000001,1.000000,-0.000057,-0.000054,0.000000
2.725000,-0.000042,0.000044,0.499848,-0.000249,0.000262,-0.000904,-0.001076,0.001133,-0.003904,-0.000116,-0.000110,0.000000,-0.000287,-0.000272,0.000000,0.000043,0.000041,0.000001,1.000000,-0.000058,-0.000055,0.000000
2.730000,-0.000043,0.000045,0.499843,-0.000255,0.000268,-0.000924,-0.001090,0.001147,-0.003953,-0.000117,-0.000111,0.000000,-0.000286,-0.000272,0.000000,0.000054,0.000051,0.000001,1.000000,-0.000058,-0.000056,0.000000
2.735000,-0.000044,0.000047,0.499839,-0.000260,0.000274,-0.000943,-0.001103,0.001161,-0.004001,-0.000118,-0.000112,0.000000,-0.000286,-0.000272,0.000000,0.000064,0.000061,0.000001,1.000000,-0.000059,-0.000056,0.000000
2.740000,-0.000046,0.000048,0.499834,-0.000266,0.000280,-0.000964,-0.001116,0.001175,-0.004049,-0.000120,-0.000114,0.000000,-0.000286,-0.000271,0.000000,0.000075,0.000071,0.000001,1.000000,-0.000060,-0.000057,0.000000
2.745000,-0.000047,0.000050,0.499829,-0.000271,0.000285,-0.000984,-0.001130,0.001189,-0.004098,-0.000121,-0.000115,0.000000,-0.000285,-0.000271,0.000000,0.000086,0.000081,0.000001,1.000000,-0.000061,-0.000058,0.000000
2.750000,-0.000048,0.000051,0.499824,-0.000277,0.000291,-0.001005,-0.001143,0.001203,-0.004146,-0.000123,-0.000117,0.000000,-0.000285,-0.000271,0.000000,0.000096,0.000092,0.000001,1.000000,-0.000061,-0.000058,0.000000
2.755000,-0.000050,0.000052,0.499819,-0.000283,0.000297,-0.001025,-0.001156,0.001217,-0.004194,-0.000124,-0.000118,0.000000,-0.000284,-0.000270,0.000000,0.000107,0.000102,0.000001,1.000000,-0.000062,-0.000059,0.000000
2.760000,-0.000051,0.000054,0.499814,-0.000289,0.000304,-0.001046,-0.001169,0.001231,-0.004242,-0.000125,-0.000119,0.000000,-0.000284,-0.000270,0.000000,0.000118,0.000112,0.000001,1.000000,-0.000063,-0.000060,0.000000
2.765000,-0.000053,0.000056,0.499809,-0.000294,0.000310,-0.001068,-0.001183,0.001244,-0.004290,-0.000127,-0.000121,0.000000,-0.000283,-0.000269,0.000000,0.000128,0.000122,0.000001,1.000000,-0.000063,-0.000060,0.000000
2.770000,-0.000054,0.000057,0.499803,-0.000300,0.000316,-0.001089,-0.001196,0.001258,-0.004337,-0.000128,-0.000122,0.000000,-0.000282,-0.000268,0.000000,0.000139,0.000132,0.000001,1.000000,-0.000064,-0.000061,0.000000
2.775000,-0.000056,0.000059,0.499798,-0.000306,0.000322,-0.001111,-0.001209,0.001272,-0.004385,-0.000130,-0.000123,0.000000,-0.000282,-0.000268,0.000000,0.000150,0.000142,0.000001,1.000000,-0.000065,-0.000062,0.000000
2.780000,-0.000057,0.000060,0.499792,-0.000312,0.000329,-0.001133,-0.001222,0.001286,-0.004433,-0.000131,-0.000125,0.000000,-0.000281,-0.000267,0.000000,0.000160,0.000152,0.000001,1.000000,-0.000066,-0.000062,0.000000
2.785000,-0.000059,0.000062,0.499786,-0.000319,0.000335,-0.001156,-0.001235,0.001300,-0.004480,-0.000133,-0.000126,0.000000,-0.000280,-0.000266,0.000000,0.000171,0.000162,0.000001,1.000000,-0.000066,-0.000063,0.000000
2.790000,-0.000060,0.000064,0.499781,-0.000325,0.000342,-0.001178,-0.001248,0.001313,-0.004527,-0.000134,-0.000127,0.000000,-0.000279,-0.000265,0.000000,0.000181,0.000172,0.000001,1.000000,-0.000067,-0.000064,0.000000
2.795000,-0.000062,0.000065,0.499775,-0.000331,0.000348,-0.001201,-0.001261,0.001327,-0.004574,-0.000135,-0.000129,0.000000,-0.000278,-0.000264,0.000000,0.000192,0.000182,0.000001,1.000000,-0.000068,-0.000064,0.000000
2.800000,-0.000064,0.000067,0.499769,-0.000337,0.000355,-0.001224,-0.001274,0.001341,-0.004621,-0.000137,-0.000130,0.000000,-0.000277,-0.000264,0.000000,0.000202,0.000192,0.000001,1.000000,-0.000068,-0.000065,0.000000
2.805000,-0.000065,0.000069,0.499762,-0.000344,0.000362,-0.001247,-0.001287,0.001354,-0.004668,-0.000138,-0.000131,0.000000,-0.000276,-0.000263,0.000000,0.000212,0.000202,0.000001,1.000000,-0.000069,-0.000066,0.000000
2.810000,-0.000067,0.000071,0.499756,-0.000350,0.000369,-0.001270,-0.001300,0.001368,-0.004715,-0.000139,-0.000133,0.000000,-0.000275,-0.000262,0.000000,0.000223,0.000212,0.000001,1.000000,-0.000070,-0.000066,0.000000
2.815000,-0.000069,0.000073,0.499750,-0.000357,0.000375,-0.001294,-0.001313,0.001381,-0.004761,-0.000141,-0.000134,0.000000,-0.000274,-0.000260,0.000000,0.000233,0.000222,0.000001,1.000000,-0.000070,-0.000067,0.000000
2.820000,-0.000071,0.000075,0.499743,-0.000363,0.000382,-0.001318,-0.001325,0.001395,-0.004807,-0.000142,-0.000135,0.000000,-0.000273,-0.000259,0.000000,0.000243,0.000231,0.000001,1.000000,-0.000071,-0.000068,0.000000
2.825000,-0.000073,0.000076,0.499737,-0.000370,0.000389,-0.001342,-0.001338,0.001408,-0.004853,-0.000144,-0.000136,0.000000,-0.000272,-0.000258,0.000000,0.000254,0.000241,0.000001,1.000000,-0.000072,-0.000068,0.000000
2.830000,-0.000075,0.000078,0.499730,-0.000377,0.000396,-0.001367,-0.001351,0.001421,-0.004899,-0.000145,-0.000138,0.000000,-0.000270,-0.000257,0.000000,0.000264,0.000251,0.000001,1.000000,-0.000072,-0.000069,0.000000
2.835000,-0.000076,0.000080,0.499723,-0.000384,0.000404,-0.001391,-0.001363,0.001434,-0.004944,-0.000146,-0.000139,0.000000,-0.000269,-0.000256,0.000000,0.000274,0.000260,0.000001,1.000000,-0.000073,-0.000070,0.000000
2.840000,-0.000078,0.000082,0.499716,-0.000390,0.000411,-0.001416,-0.001376,0.001447,-0.004990,-0.000148,-0.000140,0.000000,-0.000268,-0.000254,0.000000,0.000284,0.000270,0.000001,1.000000,-0.000074,-0.000070,0.000000
2.845000,-0.000080,0.000085,0.499709,-0.000397,0.000418,-0.001441,-0.001388,0.001461,-0.005035,-0.000149,-0.000142,0.000000,-0.000266,-0.000253,0.000000,0.000294,0.000279,0.000001,1.000000,-0.000074,-0.000071,0.000000
2.850000,-0.000082,0.000087,0.499701,-0.000404,0.000425,-0.001466,-0.001400,0.001474,-0.005080,-0.000150,-0.000143,0.000000,-0.000265,-0.000251,0.000000,0.000304,0.000289,0.000001,1.000000,-0.000075,-0.000071,0.000000
2.855000,-0.000084,0.000089,0.499694,-0.000411,0.000433,-0.001492,-0.001413,0.001487,-0.005124,-0.000152,-0.000144,0.000000,-0.000263,-0.000250,0.000000,0.000314,0.000298,0.000001,1.000000,-0.000076,-0.000072,0.000000
2.860000,-0.000086,0.000091,0.499687,-0.000418,0.000440,-0.001518,-0.001425,0.001499,-0.005169,-0.000153,-0.000145,0.000000,-0.000261,-0.000249,0.000000,0.000324,0.000308,0.000001,1.000000,-0.000076,-0.000073,0.000000
2.865000,-0.000089,0.000093,0.499679,-0.000426,0.000448,-0.001544,-0.001437,0.001512,-0.005213,-0.000154,-0.000147,0.000000,-0.000260,-0.000247,0.000000,0.000334,0.000317,0.000001,1.000000,-0.000077,-0.000073,0.000000
2.870000,-0.000091,0.000095,0.499671,-0.000433,0.000455,-0.001570,-0.001449,0.001525,-0.005256,-0.000156,-0.000148,0.000000,-0.000258,-0.000245,0.000000,0.000343,0.000326,0.000001,1.000000,-0.000078,-0.000074,0.000000
2.875000,-0.000093,0.000098,0.499663,-0.000440,0.000463,-0.001596,-0.001461,0.001537,-0.005300,-0.000157,-0.000149,0.000000,-0.000256,-0.000244,0.000000,0.000353,0.000336,0.000001,1.000000,-0.000078,-0.000075,0.000000
2.880000,-0.000095,0.000100,0.499655,-0.000447,0.000471,-0.001623,-0.001473,0.001550,-0.005343,-0.000158,-0.000150,0.000000,-0.000255,-0.000242,0.000000,0.000363,0.000345,0.000001,1.000000,-0.000079,-0.000075,0.000000
2.885000,-0.000097,0.000102,0.499647,-0.000455,0.000479,-0.001650,-0.001485,0.001562,-0.005386,-0.000159,-0.000151,0.000000,-0.000253,-0.000240,0.000000,0.000372,0.000354,0.000001,1.000000,-0.000080,-0.000076,0.000000
2.890000,-0.000100,0.000105,0.499639,-0.000462,0.000486,-0.001677,-0.001497,0.001575,-0.005428,-0.000161,-0.000153,0.000000,-0.000251,-0.000238,0.000000,0.000382,0.000363,0.000001,1.000000,-0.000080,-0.000076,0.000000
2.895000,-0.000102,0.000107,0.499630,-0.000470,0.000494,-0.001704,-0.001508,0.001587,-0.005471,-0.000162,-0.000154,0.000000,-0.000249,-0.000237,0.000000,0.000391,0.000372,0.000001,1.000000,-0.000081,-0.000077,0.000000
2.900000,-0.000104,0.000110,0.499622,-0.000477,0.000502,-0.001731,-0.001520,0.001599,-0.005512,-0.000163,-0.000155,0.000000,-0.000247,-0.000235,0.000000,0.000401,0.000381,0.000001,1.000000,-0.000082,-0.000078,0.000000
2.905000,-0.000107,0.000112,0.499613,-0.000485,0.000510,-0.001759,-0.001531,0.001611,-0.005554,-0.000164,-0.000156,0.000000,-0.000245,-0.000233,0.000000,0.000410,0.000390,0.000001,1.000000,-0.000082,-0.000078,0.000000
2.910000,-0.000109,0.000115,0.499604,-0.000493,0.000518,-0.001787,-0.001543,0.001623,-0.005595,-0.000166,-0.000157,0.000000,-0.000243,-0.000231,0.000000,0.000419,0.000399,0.000001,1.000000,-0.000083,-0.000079,0.000000
2.915000,-0.000112,0.000117,0.499595,-0.000500,0.000526,-0.001815,-0.001554,0.001635,-0.005636,-0.000167,-0.000158,0.000000,-0.000241,-0.000229,0.000000,0.000429,0.000407,0.000001,1.000000,-0.000083,-0.000079,0.000000
2.920000,-0.000114,0.000120,0.499586,-0.000508,0.000535,-0.001843,-0.001565,0.001647,-0.005676,-0.000168,-0.000160,0.000000,-0.000239,-0.000227,0.000000,0.000438,0.000416,0.000001,1.000000,-0.000084,-0.000080,0.000000
2.925000,-0.000117,0.000123,0.499577,-0.000516,0.000543,-0.001872,-0.001576,0.001658,-0.005717,-0.000169,-0.000161,0.000000,-0.000236,-0.000225,0.000000,0.000447,0.000425,0.000001,1.000000,-0.000085,-0.000080,0.000000
2.930000,-0.000119,0.000126,0.499567,-0.000524,0.000551,-0.001900,-0.001587,0.001670,-0.005756,-0.000170,-0.000162,0.000000,-0.000234,-0.000222,0.000000,0.000456,0.000433,0.000001,1.000000,-0.000085,-0.000081,0.000000
2.935000,-0.000122,0.000128,0.499558,-0.000532,0.000560,-0.001929,-0.001598,0.001681,-0.005796,-0.000171,-0.000163,0.000000,-0.000232,-0.000220,0.000000,0.000465,0.000442,0.000001,1.000000,-0.000086,-0.000081,0.000000
2.940000,-0.000125,0.000131,0.499548,-0.000540,0.000568,-0.001958,-0.001609,0.001693,-0.005835,-0.000173,-0.000164,0.000000,-0.000229,-0.000218,0.000000,0.000474,0.000450,0.000001,1.000000,-0.000086,-0.000082,0.000000
2.945000,-0.000127,0.000134,0.499538,-0.000548,0.000577,-0.001988,-0.001619,0.001704,-0.005873,-0.000174,-0.000165,0.000000,-0.000227,-0.000216,0.000000,0.000482,0.000459,0.000001,1.000000,-0.000087,-0.000083,0.000000
2.950000,-0.000130,0.000137,0.499528,-0.000556,0.000585,-0.002017,-0.001630,0.001715,-0.005911,-0.000175,-0.000166,0.000000,-0.000225,-0.000213,0.000000,0.000491,0.000467,0.000001,1.000000,-0.000087,-0.000083,0.000000
2.955000,-0.000133,0.000140,0.499518,-0.000564,0.000594,-0.002047,-0.001640,0.001726,-0.005949,-0.000176,-0.000167,0.000000,-0.000222,-0.000211,0.000000,0.000500,0.000475,0.000001,1.000000,-0.000088,-0.000084,0.000000
2.960000,-0.000136,0.000143,0.499507,-0.000572,0.000602,-0.002077,-0.001650,0.001737,-0.005986,-0.000177,-0.000168,0.000000,-0.000220,-0.000209,0.000000,0.000508,0.000483,0.000001,1.000000,-0.000089,-0.000084,0.000000
2.965000,-0.000139,0.000146,0.499497,-0.000581,0.000611,-0.002107,-0.001661,0.001747,-0.006023,-0.000178,-0.000169,0.000000,-0.000217,-0.000206,0.000000,0.000517,0.000491,0.000001,1.000000,-0.000089,-0.000085,0.000000
2.970000,-0.000142,0.000149,0.499486,-0.000589,0.000620,-0.002137,-0.001671,0.001758,-0.006060,-0.000179,-0.000170,0.000000,-0.000214,-0.000204,0.000000,0.000525,0.000499,0.000001,1.000000,-0.000090,-0.000085,0.000000
2.975000,-0.000145,0.000152,0.499476,-0.000597,0.000629,-0.002167,-0.001681,0.001768,-0.006096,-0.000180,-0.000171,0.000000,-0.000212,-0.000201,0.000000,0.000534,0.000507,0.000001,1.000000,-0.000090,-0.000086,0.000000
2.980000,-0.000148,0.000155,0.499465,-0.000606,0.000638,-0.002198,-0.001690,0.001779,-0.006131,-0.000181,-0.000172,0.000000,-0.000209,-0.000199,0.000000,0.000542,0.000515,0.000001,1.000000,-0.000091,-0.000086,0.000000
2.985000,-0.000151,0.000158,0.499454,-0.000614,0.000646,-0.002228,-0.001700,0.001789,-0.006166,-0.000182,-0.000173,0.000000,-0.000206,-0.000196,0.000000,0.000550,0.000523,0.000001,1.000000,-0.000091,-0.000087,0.000000
2.990000,-0.000154,0.000162,0.499442,-0.000623,0.000655,-0.002259,-0.001710,0.001799,-0.006201,-0.000183,-0.000174,0.000000,-0.000204,-0.000194,0.000000,0.000558,0.000530,0.000001,1.000000,-0.000092,-0.000087,0.000000
2.995000,-0.000157,0.000165,0.499431,-0.000631,0.000664,-0.002291,-0.001719,0.001809,-0.006235,-0.000184,-0.000175,0.000000,-0.000201,-0.000191,0.000000,0.000566,0.000538,0.000001,1.000000,-0.000092,-0.000088,0.000000
3.000000,-0.000160,0.000168,0.499420,-0.000640,0.000674,-0.002322,-0.001728,0.001819,-0.006269,-0.000185,-0.000176,0.000000,-0.000198,-0.000188,0.000000,0.000574,0.000545,0.000001,1.000000,-0.000093,-0.000088,0.000000
3.005000,-0.000163,0.000172,0.499408,-0.000649,0.000683,-0.002353,-0.001737,0.001828,-0.006302,-0.000186,-0.000177,0.000000,-0.000195,-0.000185,0.000000,0.000582,0.000553,0.000001,1.000000,-0.000093,-0.000089,0.000000
3.010000,-0.000167,0.000175,0.499396,-0.000657,0.000692,-0.002385,-0.001746,0.001838,-0.006335,-0.000187,-0.000178,0.000000,-0.000192,-0.000183,0.000000,0.000589,0.000560,0.000001,1.000000,-0.000094,-0.000089,0.000000
3.015000,-0.000170,0.000179,0.499384,-0.000666,0.000701,-0.002417,-0.001755,0.001847,-0.006367,-0.000188,-0.000179,0.000000,-0.000189,-0.000180,0.000000,0.000597,0.000567,0.000001,1.000000,-0.000094,-0.000090,0.000000
3.020000,-0.000173,0.000182,0.499372,-0.000675,0.000710,-0.002448,-0.001764,0.001856,-0.006399,-0.000189,-0.000180,0.000000,-0.000186,-0.000177,0.000000,0.000605,0.000575,0.000001,1.000000,-0.000095,-0.000090,0.000000
3.025000,-0.000177,0.000186,0.499360,-0.000684,0.000720,-0.002481,-0.001773,0.001865,-0.006430,-0.000190,-0.000181,0.000000,-0.000183,-0.000174,0.000000,0.000612,0.000582,0.000001,1.000000,-0.000095,-0.000090,0.000000
3.030000,-0.000180,0.000189,0.499347,-0.000693,0.000729,-0.002513,-0.001781,0.001874,-0.006460,-0.000191,-0.000182,0.000000,-0.000180,-0.000171,0.000000,0.000619,0.000589,0.000001,1.000000,-0.000096,-0.000091,0.000000
3.035000,-0.000183,0.000193,0.499334,-0.000702,0.000738,-0.002545,-0.001789,0.001883,-0.006491,-0.000192,-0.000183,0.000000,-0.000177,-0.000168,0.000000,0.000627,0.000596,0.000001,1.000000,-0.000096,-0.000091,0.000000
3.040000,-0.000187,0.000197,0.499322,-0.000711,0.000748,-0.002578,-0.001798,0.001891,-0.006520,-0.000193,-0.000183,0.000000,-0.000174,-0.000165,0.000000,0.000634,0.000602,0.000001,1.000000,-0.000096,-0.000092,0.000000
3.045000,-0.000191,0.000201,0.499309,-0.000720,0.000757,-0.002610,-0.001806,0.001900,-0.006549,-0.000194,-0.000184,0.000000,-0.000171,-0.000162,0.000000,0.000641,0.000609,0.000001,1.000000,-0.000097,-0.000092,0.000000
3.050000,-0.000194,0.000204,0.499296,-0.000729,0.000767,-0.002643,-0.001813,0.001908,-0.006578,-0.000195,-0.000185,0.000000,-0.000167,-0.000159,0.000000,0.000648,0.000616,0.000001,1.000000,-0.000097,-0.000092,0.000000
3.055000,-0.000198,0.000208,0.499282,-0.000738,0.000776,-0.002676,-0.001821,0.001916,-0.006606,-0.000195,-0.000186,0.000000,-0.000164,-0.000156,0.000000,0.000655,0.000622,0.000001,1.000000,-0.000098,-0.000093,0.000000
3.060000,-0.000202,0.000212,0.499269,-0.000747,0.000786,-0.002709,-0.001829,0.001924,-0.006633,-0.000196,-0.000187,0.000000,-0.000161,-0.000153,0.000000,0.000662,0.000629,0.000001,1.000000,-0.000098,-0.000093,0.000000
3.065000,-0.000205,0.000216,0.499255,-0.000756,0.000796,-0.002742,-0.001836,0.001932,-0.006660,-0.000197,-0.000187,0.000000,-0.000158,-0.000150,0.000000,0.000668,0.000635,0.000001,1.000000,-0.000099,-0.000094,0.000000
3.070000,-0.000209,0.000220,0.499241,-0.000765,0.000805,-0.002776,-0.001843,0.001940,-0.006686,-0.000198,-0.000188,0.000000,-0.000154,-0.000147,0.000000,0.000675,0.000641,0.000001,1.000000,-0.000099,-0.000094,0.000000
3.075000,-0.000213,0.000224,0.499227,-0.000774,0.000815,-0.002809,-0.001850,0.001947,-0.006712,-0.000199,-0.000189,0.000000,-0.000151,-0.000143,0.000000,0.000682,0.000648,0.000001,1.000000,-0.000099,-0.000094,0.000000
3.080000,-0.000217,0.000228,0.499213,-0.000784,0.000825,-0.002843,-0.001857,0.001954,-0.006737,-0.000199,-0.000189,0.000000,-0.000147,-0.000140,0.000000,0.000688,0.000654,0.000001,1.000000,-0.000100,-0.000095,0.000000
3.085000,-0.000221,0.000232,0.499199,-0.000793,0.000834,-0.002877,-0.001864,0.001962,-0.006762,-0.000200,-0.000190,0.000000,-0.000144,-0.000137,0.000000,0.000694,0.000660,0.000001,1.000000,-0.000100,-0.000095,0.000000
3.090000,-0.000225,0.000237,0.499184,-0.000802,0.000844,-0.002911,-0.001871,0.001969,-0.006786,-0.000201,-0.000191,0.000000,-0.000140,-0.000133,0.000000,0.000701,0.000666,0.000001,1.000000,-0.000100,-0.000095,0.000000
3.095000,-0.000229,0.000241,0.499170,-0.000812,0.000854,-0.002945,-0.001877,0.001975,-0.006809,-0.000201,-0.000191,0.000000,-0.000137,-0.000130,0.000000,0.000707,0.000672,0.000001,1.000000,-0.000101,-0.000096,0.000000
3.100000,-0.000233,0.000245,0.499155,-0.000821,0.000864,-0.002979,-0.001884,0.001982,-0.006832,-0.000202,-0.000192,0.000000,-0.000133,-0.000127,0.000000,0.000713,0.000677,0.000001,1.000000,-0.000101,-0.000096,0.000000
3.105000,-0.000237,0.000249,0.499140,-0.000831,0.000874,-0.003013,-0.001890,0.001988,-0.006854,-0.000203,-0.000193,0.000000,-0.000130,-0.000123,0.000000,0.000719,0.000683,0.000001,1.000000,-0.000101,-0.000096,0.000000
3.110000,-0.000241,0.000254,0.499125,-0.000840,0.000884,-0.003047,-0.001896,0.001995,-0.006876,-0.000203,-0.000193,0.000000,-0.000126,-0.000120,0.000000,0.000724,0.000688,0.000001,1.000000,-0.000102,-0.000097,0.000000
3.115000,-0.000245,0.000258,0.499110,-0.000850,0.000894,-0.003082,-0.001901,0.002001,-0.006897,-0.000204,-0.000194,0.000000,-0.000123,-0.000116,0.000000,0.000730,0.000694,0.000001,1.000000,-0.000102,-0.000097,0.000000
3.120000,-0.000250,0.000263,0.499094,-0.000859,0.000904,-0.003116,-0.001907,0.002007,-0.006917,-0.000205,-0.000195,0.000000,-0.000119,-0.000113,0.000000,0.000736,0.000699,0.000001,1.000000,-0.000102,-0.000097,0.000000
3.125000,-0.000254,0.000267,0.499078,-0.000869,0.000914,-0.003151,-0.001912,0.002012,-0.006937,-0.000205,-0.000195,0.000000,-0.000115,-0.000109,0.000000,0.000741,0.000705,0.000001,1.000000,-0.000103,-0.000098,0.000000
3.130000,-0.000258,0.000272,0.499063,-0.000878,0.000924,-0.003186,-0.001918,0.002018,-0.006956,-0.000206,-0.000196,0.000000,-0.000111,-0.000106,0.000000,0.000747,0.000710,0.000001,1.000000,-0.000103,-0.000098,0.000000
3.135000,-0.000263,0.000277,0.499047,-0.000888,0.000934,-0.003220,-0.001923,0.002023,-0.006975,-0.000206,-0.000196,0.000000,-0.000108,-0.000102,0.000000,0.000752,0.000715,0.000001,1.000000,-0.000103,-0.000098,0.000000
3.140000,-0.000267,0.000281,0.499030,-0.000897,0.000944,-0.003255,-0.001928,0.002028,-0.006993,-0.000207,-0.000197,0.000000,-0.000104,-0.000099,0.000000,0.000757,0.000720,0.000001,1.000000,-0.000103,-0.000098,0.000000
3.145000,-0.000272,0.000286,0.499014,-0.000907,0.000954,-0.003290,-0.001933,0.002033,-0.007010,-0.000207,-0.000197,0.000000,-0.000100,-0.000095,0.000000,0.000762,0.000725,0.000001,1.000000,-0.000104,-0.000099,0.000000
3.150000,-0.000276,0.000291,0.498997,-0.000917,0.000965,-0.003325,-0.001937,0.002038,-0.007026,-0.000208,-0.000198,0.000000,-0.000096,-0.000092,0.000000,0.000768,0.000729,0.000001,1.000000,-0.000104,-0.000099,0.000000
3.155000,-0.000281,0.000296,0.498981,-0.000926,0.000975,-0.003361,-0.001941,0.002043,-0.007042,-0.000208,-0.000198,0.000000,-0.000092,-0.000088,0.000000,0.000772,0.000734,0.000001,1.000000,-0.000104,-0.000099,0.000000
3.160000,-0.000286,0.000301,0.498964,-0.000936,0.000985,-0.003396,-0.001946,0.002047,-0.007058,-0.000209,-0.000198,0.000000,-0.000089,-0.000084,0.000000,0.000777,0.000739,0.000001,1.000000,-0.000104,-0.000099,0.000000
3.165000,-0.000290,0.000306,0.498947,-0.000946,0.000995,-0.003431,-0.001950,0.002052,-0.007072,-0.000209,-0.000199,0.000000,-0.000085,-0.000080,0.000000,0.000782,0.000743,0.000001,1.000000,-0.000105,-0.000099,0.000000
3.170000,-0.000295,0.000311,0.498930,-0.000956,0.001006,-0.003467,-0.001954,0.002056,-0.007086,-0.000210,-0.000199,0.000000,-0.000081,-0.000077,0.000000,0.000787,0.000748,0.000001,1.000000,-0.000105,-0.000100,0.000000
3.175000,-0.000300,0.000316,0.498912,-0.000965,0.001016,-0.003502,-0.001957,0.002060,-0.007100,-0.000210,-0.000200,0.000000,-0.000077,-0.000073,0.000000,0.000791,0.000752,0.000001,1.000000,-0.000105,-0.000100,0.000000
3.180000,-0.000305,0.000321,0.498895,-0.000975,0.001026,-0.003537,-0.001961,0.002063,-0.007112,-0.000210,-0.000200,0.000000,-0.000073,-0.000069,0.000000,0.000795,0.000756,0.000001,1.000000,-0.000105,-0.000100,0.000000
3.185000,-0.000310,0.000326,0.498877,-0.000985,0.001037,-0.003573,-0.001964,0.002067,-0.007124,-0.000211,-0.000200,0.000000,-0.000069,-0.000065,0.000000,0.000800,0.000760,0.000001,1.000000,-0.000105,-0.000100,0.000000
3.190000,-0.000315,0.000331,0.498859,-0.000995,0.001047,-0.003609,-0.001967,0.002070,-0.007135,-0.000211,-0.000201,0.000000,-0.000065,-0.000062,0.000000,0.000804,0.000764,0.000001,1.000000,-0.000106,-0.000100,0.000000
3.195000,-0.000320,0.000336,0.498841,-0.001005,0.001057,-0.003644,-0.001970,0.002073,-0.007146,-0.000211,-0.000201,0.000000,-0.000061,-0.000058,0.000000,0.000808,0.000768,0.000001,1.000000,-0.000106,-0.000100,0.000000
3.200000,-0.000325,0.000342,0.498822,-0.001015,0.001068,-0.003680,-0.001973,0.002076,-0.007156,-0.000212,-0.000201,0.000000,-0.000057,-0.000054,0.000000,0.000812,0.000772,0.000001,1.000000,-0.000106,-0.000101,0.000000
3.205000,-0.000330,0.000347,0.498804,-0.001024,0.001078,-0.003716,-0.001975,0.002079,-0.007165,-0.000212,-0.000202,0.000000,-0.000053,-0.000050,0.000000,0.000816,0.000775,0.000001,1.000000,-0.000106,-0.000101,0.000000
3.210000,-0.000335,0.000352,0.498785,-0.001034,0.001088,-0.003752,-0.001978,0.002081,-0.007174,-0.000212,-0.000202,0.000000,-0.000049,-0.000046,0.000000,0.000820,0.000779,0.000001,1.000000,-0.000106,-0.000101,0.000000
3.215000,-0.000340,0.000358,0.498766,-0.001044,0.001099,-0.003788,-0.001980,0.002083,-0.007182,-0.000213,-0.000202,0.000000,-0.000044,-0.000042,0.000001,0.000823,0.000782,0.000001,1.000000,-0.000106,-0.000101,0.000000
3.220000,-0.000345,0.000363,0.498747,-0.001054,0.001109,-0.003824,-0.001982,0.002085,-0.007189,-0.000213,-0.000202,0.000000,-0.000040,-0.000038,0.000001,0.000827,0.000786,0.000001,1.000000,-0.000106,-0.000101,0.000000
3.225000,-0.000351,0.000369,0.498728,-0.001064,0.001120,-0.003860,-0.001984,0.002087,-0.007195,-0.000213,-0.000202,0.000000,-0.000036,-0.000034,0.000001,0.000830,0.000789,0.000001,1.000000,-0.000106,-0.000101,0.000000
3.230000,-0.000356,0.000375,0.498709,-0.001074,0.001130,-0.003896,-0.001985,0.002089,-0.007201,-0.000213,-0.000203,0.000000,-0.000032,-0.000030,0.000001,0.000834,0.000792,0.000001,1.000000,-0.000107,-0.000101,0.000000
3.235000,-0.000361,0.000380,0.498689,-0.001084,0.001141,-0.003932,-0.001987,0.002090,-0.007206,-0.000213,-0.000203,0.000000,-0.000028,-0.000027,0.000001,0.000837,0.000795,0.000001,1.000000,-0.000107,-0.000101,0.000000
3.240000,-0.000367,0.000386,0.498669,-0.001094,0.001151,-0.003968,-0.001988,0.002092,-0.007210,-0.000213,-0.000203,0.000000,-0.000024,-0.000023,0.000001,0.000840,0.000798,0.000001,1.000000,-0.000107,-0.000101,0.000000
3.245000,-0.000372,0.000392,0.498649,-0.001104,0.001161,-0.004004,-0.001989,0.002093,-0.007214,-0.000213,-0.000203,0.000000,-0.000019,-0.000019,0.000001,0.000843,0.000801,0.000001,1.000000,-0.000107,-0.000101,0.000000
3.250000,-0.000378,0.000398,0.498629,-0.001114,0.001172,-0.004040,-0.001990,0.002094,-0.007217,-0.000214,-0.000203,0.000000,-0.000015,-0.000015,0.000001,0.000846,0.000804,0.000001,1.000000,-0.000107,-0.000101,0.000000
3.255000,-0.000383,0.000403,0.498609,-0.001124,0.001182,-0.004076,-0.001990,0.002094,-0.007219,-0.000214,-0.000203,0.000000,-0.000011,-0.000010,0.000001,0.000849,0.000807,0.000001,1.000000,-0.000107,-0.000102,0.000000
3.260000,-0.000389,0.000409,0.498589,-0.001134,0.001193,-0.004112,-0.001991,0.002095,-0.007221,-0.000214,-0.000203,0.000000,-0.000007,-0.000006,0.000001,0.000851,0.000809,0.000001,1.000000,-0.000107,-0.000102,0.000000
3.265000,-0.000395,0.000415,0.498568,-0.001144,0.001203,-0.004148,-0.001991,0.002095,-0.007221,-0.000214,-0.000203,0.000000,-0.000003,-0.000002,0.000001,0.000854,0.000812,0.000001,1.000000,-0.000107,-0.000102,0.000000
3.270000,-0.000401,0.000421,0.498547,-0.001154,0.001214,-0.004184,-0.001991,0.002095,-0.007222,-0.000214,-0.000203,0.000000,0.000002,0.000002,0.000001,0.000856,0.000814,0.000001,1.000000,-0.000107,-0.000102,0.000000
3.275000,-0.000406,0.000428,0.498526,-0.001163,0.001224,-0.004220,-0.001991,0.002095,-0.007221,-0.000214,-0.000203,0.000000,0.000006,0.000006,0.000001,0.000859,0.000816,0.000001,1.000000,-0.000107,-0.000102,0.000000
3.280000,-0.000412,0.000434,0.498505,-0.001173,0.001235,-0.004256,-0.001990,0.002094,-0.007220,-0.000214,-0.000203,0.000000,0.000010,0.000010,0.000001,0.000861,0.000818,0.000001,1.000000,-0.000107,-0.000102,0.000000
3.285000,-0.000418,0.000440,0.498484,-0.001183,0.001245,-0.004293,-0.001990,0.002094,-0.007217,-0.000214,-0.000203,0.000000,0.000015,0.000014,0.000001,0.000863,0.000820,0.000001,1.000000,-0.000107,-0.000101,0.000000
3.290000,-0.000424,0.000446,0.498462,-0.001193,0.001256,-0.004329,-0.001989,0.002093,-0.007215,-0.000213,-0.000203,0.000000,0.000019,0.000018,0.000001,0.000865,0.000822,0.000001,1.000000,-0.000107,-0.000101,0.000000
3.295000,-0.000430,0.000452,0.498440,-0.001203,0.001266,-0.004365,-0.001988,0.002092,-0.007211,-0.000213,-0.000203,0.000000,0.000023,0.000022,0.000001,0.000867,0.000824,0.000001,1.000000,-0.000107,-0.000101,0.000000
3.300000,-0.000436,0.000459,0.498418,-0.001213,0.001277,-0.004401,-0.001987,0.002091,-0.007207,-0.000213,-0.000203,0.000000,0.000028,0.000026,0.000001,0.000869,0.000826,0.000001,1.000000,-0.000107,-0.000101,0.000000
3.305000,-0.000442,0.000465,0.498396,-0.001223,0.001287,-0.004437,-0.001985,0.002089,-0.007202,-0.000213,-0.000203,0.000000,0.000032,0.000030,0.000001,0.000871,0.000828,0.000001,1.000000,-0.000107,-0.000101,0.000000
3.310000,-0.000448,0.000472,0.498374,-0.001233,0.001297,-0.004473,-0.001984,0.002087,-0.007196,-0.000213,-0.000202,0.000000,0.000036,0.000035,0.000001,0.000872,0.000829,0.000001,1.000000,-0.000106,-0.000101,0.000000
3.315000,-0.000454,0.000478,0.498352,-0.001243,0.001308,-0.004509,-0.001982,0.002086,-0.007189,-0.000213,-0.000202,0.000000,0.000041,0.000039,0.000001,0.000874,0.000831,0.000001,1.000000,-0.000106,-0.000101,0.000000
3.320000,-0.000461,0.000485,0.498329,-0.001253,0.001318,-0.004545,-0.001980,0.002083,-0.007182,-0.000213,-0.000202,0.000000,0.000045,0.000043,0.000001,0.000875,0.000832,0.000001,1.000000,-0.000106,-0.000101,0.000000
3.325000,-0.000467,0.000491,0.498306,-0.001263,0.001329,-0.004581,-0.001978,0.002081,-0.007174,-0.000212,-0.000202,0.000000,0.000049,0.000047,0.000001,0.000877,0.000833,0.000001,1.000000,-0.000106,-0.000101,0.000000
3.330000,-0.000473,0.000498,0.498283,-0.001273,0.001339,-0.004616,-0.001975,0.002079,-0.007165,-0.000212,-0.000202,0.000000,0.000054,0.000051,0.000001,0.000878,0.000834,0.000001,1.000000,-0.000106,-0.000101,0.000000
3.335000,-0.000480,0.000505,0.498260,-0.001283,0.001350,-0.004652,-0.001973,0.002076,-0.007156,-0.000212,-0.000201,0.000000,0.000058,0.000055,0.000001,0.000879,0.000835,0.000001,1.000000,-0.000106,-0.000101,0.000000
3.340000,-0.000486,0.000512,0.498237,-0.001292,0.001360,-0.004688,-0.001970,0.002073,-0.007146,-0.000211,-0.000201,0.000000,0.000063,0.000060,0.000001,0.000880,0.000836,0.000001,1.000000,-0.000106,-0.000100,0.000000
3.345000,-0.000493,0.000518,0.498213,-0.001302,0.001370,-0.004724,-0.001967,0.002070,-0.007135,-0.000211,-0.000201,0.000000,0.000067,0.000064,0.000001,0.000881,0.000837,0.000001,1.000000,-0.000106,-0.000100,0.000000
3.350000,-0.000499,0.000525,0.498189,-0.001312,0.001381,-0.004759,-0.001964,0.002066,-0.007123,-0.000211,-0.000200,0.000000,0.000071,0.000068,0.000001,0.000882,0.000838,0.000001,1.000000,-0.000105,-0.000100,0.000000
3.355000,-0.000506,0.000532,0.498165,-0.001322,0.001391,-0.004795,-0.001960,0.002063,-0.007111,-0.000210,-0.000200,0.000000,0.000076,0.000072,0.000001,0.000882,0.000838,0.000001,1.000000,-0.000105,-0.000100,0.000000
3.360000,-0.000512,0.000539,0.498141,-0.001332,0.001401,-0.004830,-0.001957,0.002059,-0.007097,-0.000210,-0.000200,0.000000,0.000080,0.000076,0.000001,0.000883,0.000839,0.000001,1.000000,-0.000105,-0.000100,0.000000
